{"iso3":"ARE","count":28,"source":{"label":"WRI Global Power Plant Database v1.3","url":"https://datasets.wri.org/dataset/globalpowerplantdatabase","year":2021},"byFuel":{"gas":24,"solar":4},"byTier":{"2GW+":5,"1-2GW":5,"500MW-1GW":11,"100-500MW":7},"plants":[{"name":"Shuweihat S1","mw":4889,"lat":24.165,"lon":52.568,"fuel":"gas","tier":"2GW+","year":2005},{"name":"APC UAN","mw":2430,"lat":24.4375,"lon":54.491,"fuel":"gas","tier":"2GW+","year":2003},{"name":"TAPCO","mw":2200,"lat":24.768,"lon":54.6873,"fuel":"gas","tier":"2GW+","year":2005},{"name":"FAPCO (Fuj F2)","mw":2114,"lat":25.3142,"lon":56.3728,"fuel":"gas","tier":"2GW+","year":2011},{"name":"Jebel Ali \"M\"","mw":2060,"lat":25.0592,"lon":55.1181,"fuel":"gas","tier":"2GW+","year":2010},{"name":"New Mirfah (MIPCO)","mw":1728,"lat":24.104,"lon":53.4264,"fuel":"gas","tier":"1-2GW","year":2016},{"name":"Taweelah A1","mw":1671,"lat":24.7609,"lon":54.6803,"fuel":"gas","tier":"1-2GW","year":2000},{"name":"Jebel Ali \"L\" - Ph ll","mw":1393,"lat":25.0508,"lon":55.1112,"fuel":"gas","tier":"1-2GW","year":2007},{"name":"Wasit Power Station (WPS)","mw":1182,"lat":25.3732,"lon":55.4611,"fuel":"gas","tier":"1-2GW","year":1998},{"name":"Jebel Ali \"D\"","mw":1027,"lat":25.0659,"lon":55.1235,"fuel":"gas","tier":"1-2GW","year":1979},{"name":"Jebel Ali \"L\" - Ph I","mw":969,"lat":25.0461,"lon":55.1053,"fuel":"gas","tier":"500MW-1GW","year":2005},{"name":"Jebel Ali \"K\"","mw":918,"lat":25.0591,"lon":55.1181,"fuel":"gas","tier":"500MW-1GW","year":2002},{"name":"Layyah Power Station (LPS)","mw":911,"lat":25.3527,"lon":55.3705,"fuel":"gas","tier":"500MW-1GW","year":1977},{"name":"ESWPC (Fuj F1)","mw":861,"lat":25.3142,"lon":56.3728,"fuel":"gas","tier":"500MW-1GW","year":2004},{"name":"Aweer \"H\" - Ph lll","mw":818,"lat":25.1498,"lon":55.4247,"fuel":"gas","tier":"500MW-1GW","year":2008},{"name":"Jebel Ali \"G\"","mw":818,"lat":25.0557,"lon":55.1149,"fuel":"gas","tier":"500MW-1GW","year":1993},{"name":"Taweelah A2","mw":760,"lat":24.7624,"lon":54.6835,"fuel":"gas","tier":"500MW-1GW","year":2001},{"name":"Jebel Ali \"E\"","mw":616,"lat":25.0595,"lon":55.1178,"fuel":"gas","tier":"500MW-1GW","year":1989},{"name":"Aweer \"H\" - Ph l","mw":607,"lat":25.1493,"lon":55.4268,"fuel":"gas","tier":"500MW-1GW","year":1998},{"name":"Al Mirfa Power Company","mw":551,"lat":24.121,"lon":53.447,"fuel":"gas","tier":"500MW-1GW","year":1998},{"name":"Hamriyah Power Station (HPS)","mw":504,"lat":25.4598,"lon":55.48,"fuel":"gas","tier":"500MW-1GW","year":2006},{"name":"MBRSP} IIIB","mw":300,"lat":24.765,"lon":55.37,"fuel":"solar","tier":"100-500MW","year":null},{"name":"MBRSP} II","mw":220,"lat":24.759,"lon":55.383,"fuel":"solar","tier":"100-500MW","year":null},{"name":"MBRSP} IIIA","mw":200,"lat":24.747,"lon":55.385,"fuel":"solar","tier":"100-500MW","year":null},{"name":"zawra","mw":200,"lat":25.446,"lon":55.4777,"fuel":"gas","tier":"100-500MW","year":1980},{"name":"Khorfakkan Station (KHPS)","mw":144,"lat":25.3671,"lon":56.3401,"fuel":"gas","tier":"100-500MW","year":1987},{"name":"Ajman","mw":116,"lat":25.402,"lon":55.45,"fuel":"gas","tier":"100-500MW","year":1980},{"name":"Shams","mw":100,"lat":23.5711,"lon":53.7143,"fuel":"solar","tier":"100-500MW","year":2013}]}