{"iso3":"ARM","count":7,"byFuel":{"gas":3,"hydro":3,"nuclear":1},"byTier":{"1-2GW":1,"500MW-1GW":2,"100-500MW":4},"plants":[{"name":"Hrazadan","mw":1110,"lat":40.564,"lon":44.7479,"fuel":"gas","tier":"1-2GW","year":null},{"name":"Sevan-Hrazdan Cascade","mw":561,"lat":40.5078,"lon":44.7606,"fuel":"hydro","tier":"500MW-1GW","year":null},{"name":"Yerevan","mw":550,"lat":40.1138,"lon":44.5038,"fuel":"gas","tier":"500MW-1GW","year":null},{"name":"Armenian-2","mw":375,"lat":40.1805,"lon":44.1498,"fuel":"nuclear","tier":"100-500MW","year":1980},{"name":"New Yerevan","mw":271,"lat":40.1152,"lon":44.4973,"fuel":"gas","tier":"100-500MW","year":2010},{"name":"Shamb","mw":170,"lat":39.4743,"lon":46.1306,"fuel":"hydro","tier":"100-500MW","year":1978},{"name":"Tatev","mw":158,"lat":39.3956,"lon":46.2578,"fuel":"hydro","tier":"100-500MW","year":1970}]}