{"iso3":"AUT","count":30,"byFuel":{"gas":3,"hydro":27},"byTier":{"1-2GW":1,"500MW-1GW":3,"100-500MW":26},"plants":[{"name":"Simmering","mw":1272,"lat":48.1815,"lon":16.4334,"fuel":"gas","tier":"1-2GW","year":2009},{"name":"Malta main stage","mw":730,"lat":47.0659,"lon":13.3539,"fuel":"hydro","tier":"500MW-1GW","year":1979},{"name":"Kopswerk II","mw":525,"lat":46.975,"lon":10.043,"fuel":"hydro","tier":"500MW-1GW","year":2008},{"name":"KW Silz","mw":500,"lat":47.2696,"lon":10.9678,"fuel":"hydro","tier":"500MW-1GW","year":1981},{"name":"Kaprun Limberg II","mw":480,"lat":47.1985,"lon":12.7223,"fuel":"hydro","tier":"100-500MW","year":2011},{"name":"Timelkam","mw":400,"lat":48.0122,"lon":13.5895,"fuel":"gas","tier":"100-500MW","year":2008},{"name":"Donaustadt","mw":395,"lat":48.2,"lon":16.4633,"fuel":"gas","tier":"100-500MW","year":2001},{"name":"KW Kaunertal","mw":392,"lat":47.0678,"lon":10.6652,"fuel":"hydro","tier":"100-500MW","year":1964},{"name":"Mayrhofen","mw":355,"lat":47.1581,"lon":11.8501,"fuel":"hydro","tier":"100-500MW","year":1977},{"name":"Rodundwerk II","mw":295,"lat":47.0847,"lon":9.8744,"fuel":"hydro","tier":"100-500MW","year":1976},{"name":"Greifenstein","mw":293,"lat":48.3553,"lon":16.2424,"fuel":"hydro","tier":"100-500MW","year":1985},{"name":"KW Kühtai","mw":289,"lat":47.2078,"lon":11.0057,"fuel":"hydro","tier":"100-500MW","year":1981},{"name":"Aschach","mw":287,"lat":48.3853,"lon":14.023,"fuel":"hydro","tier":"100-500MW","year":1964},{"name":"Lünerseewerk","mw":280,"lat":47.074,"lon":9.874,"fuel":"hydro","tier":"100-500MW","year":1958},{"name":"Kaprun main stage","mw":240,"lat":47.2591,"lon":12.7389,"fuel":"hydro","tier":"100-500MW","year":1953},{"name":"Ybbs-Persenbeug","mw":236,"lat":48.1892,"lon":15.0682,"fuel":"hydro","tier":"100-500MW","year":1960},{"name":"Wallsee-Mitterkirchen","mw":210,"lat":48.1666,"lon":14.6953,"fuel":"hydro","tier":"100-500MW","year":1969},{"name":"Gerlos","mw":200,"lat":47.2342,"lon":11.8997,"fuel":"hydro","tier":"100-500MW","year":1949},{"name":"Rodundwerk I","mw":198,"lat":47.085,"lon":9.8813,"fuel":"hydro","tier":"100-500MW","year":null},{"name":"Melk","mw":187,"lat":48.2232,"lon":15.3042,"fuel":"hydro","tier":"100-500MW","year":1982},{"name":"Ottensheim-Wilhering","mw":179,"lat":48.3166,"lon":14.1512,"fuel":"hydro","tier":"100-500MW","year":1975},{"name":"Freudenau Danube","mw":172,"lat":48.1764,"lon":16.4811,"fuel":"hydro","tier":"100-500MW","year":1998},{"name":"Vienna-Freudenau","mw":172,"lat":48.1766,"lon":16.4814,"fuel":"hydro","tier":"100-500MW","year":1999},{"name":"Abwinden-Asten","mw":168,"lat":48.248,"lon":14.4305,"fuel":"hydro","tier":"100-500MW","year":1980},{"name":"Vermuntwerk","mw":157,"lat":46.9684,"lon":10.0599,"fuel":"hydro","tier":"100-500MW","year":null},{"name":"Jochenstein","mw":132,"lat":48.5184,"lon":13.7076,"fuel":"hydro","tier":"100-500MW","year":1956},{"name":"Malta Secondary school","mw":120,"lat":47.0659,"lon":13.3539,"fuel":"hydro","tier":"100-500MW","year":1979},{"name":"Schwarzach","mw":120,"lat":47.3152,"lon":13.1389,"fuel":"hydro","tier":"100-500MW","year":1960},{"name":"Kaprun Oberstufe","mw":113,"lat":47.1968,"lon":12.7192,"fuel":"hydro","tier":"100-500MW","year":1956},{"name":"Braunau-Simbach","mw":100,"lat":48.244,"lon":13.006,"fuel":"hydro","tier":"100-500MW","year":1954}]}