{"iso3":"BHR","count":6,"byFuel":{"gas":6},"byTier":{"2GW+":1,"1-2GW":2,"500MW-1GW":3},"plants":[{"name":"Alba Power Station","mw":2204,"lat":26.0945,"lon":50.6008,"fuel":"gas","tier":"2GW+","year":null},{"name":"Al Dur Power and Water","mw":1540,"lat":25.9714,"lon":50.6076,"fuel":"gas","tier":"1-2GW","year":2012},{"name":"Sitra Power an Water Station","mw":1205,"lat":26.1833,"lon":50.6237,"fuel":"gas","tier":"1-2GW","year":null},{"name":"Hidd Power and Water station 1","mw":963,"lat":26.2223,"lon":50.6621,"fuel":"gas","tier":"500MW-1GW","year":1999},{"name":"Al Ezzel Power Station","mw":962,"lat":26.2175,"lon":50.6595,"fuel":"gas","tier":"500MW-1GW","year":2007},{"name":"Rifa'a Power Station","mw":700,"lat":26.1199,"lon":50.5889,"fuel":"gas","tier":"500MW-1GW","year":null}]}