{"iso3":"CHE","count":29,"byFuel":{"hydro":25,"nuclear":4},"byTier":{"1-2GW":4,"500MW-1GW":1,"100-500MW":24},"plants":[{"name":"Bieudron","mw":1285,"lat":46.1855,"lon":7.2512,"fuel":"hydro","tier":"1-2GW","year":1999},{"name":"Kernkraftwerk Leibstadt","mw":1245,"lat":47.6012,"lon":8.1845,"fuel":"nuclear","tier":"1-2GW","year":1984},{"name":"Kernkraftwerk Gösgen","mw":1035,"lat":47.3656,"lon":7.968,"fuel":"nuclear","tier":"1-2GW","year":1979},{"name":"Limmern","mw":1000,"lat":46.8489,"lon":9.0118,"fuel":"hydro","tier":"1-2GW","year":2016},{"name":"Kernkraftwerk Beznau","mw":760,"lat":47.552,"lon":8.2281,"fuel":"nuclear","tier":"500MW-1GW","year":null},{"name":"Nendaz","mw":392,"lat":46.1822,"lon":7.248,"fuel":"hydro","tier":"100-500MW","year":1960},{"name":"Kernkraftwerk Mühleberg","mw":390,"lat":46.9689,"lon":7.2684,"fuel":"nuclear","tier":"100-500MW","year":1972},{"name":"Grimsel 2","mw":348,"lat":46.5654,"lon":8.3278,"fuel":"hydro","tier":"100-500MW","year":1981},{"name":"Bitsch (Biel)","mw":340,"lat":46.3336,"lon":8.0086,"fuel":"hydro","tier":"100-500MW","year":1969},{"name":"Biasca","mw":324,"lat":46.3335,"lon":8.9798,"fuel":"hydro","tier":"100-500MW","year":1959},{"name":"Fionnay (Dixence)","mw":306,"lat":46.0731,"lon":7.4034,"fuel":"hydro","tier":"100-500MW","year":1957},{"name":"Pradella","mw":300,"lat":46.805,"lon":10.3327,"fuel":"hydro","tier":"100-500MW","year":1970},{"name":"Châtelard-Vallorcine","mw":261,"lat":46.0615,"lon":6.9586,"fuel":"hydro","tier":"100-500MW","year":1978},{"name":"Riddes","mw":258,"lat":46.1728,"lon":7.2236,"fuel":"hydro","tier":"100-500MW","year":1956},{"name":"Stalden (KWM)","mw":185,"lat":46.2403,"lon":7.8744,"fuel":"hydro","tier":"100-500MW","year":1965},{"name":"Sedrun 1","mw":150,"lat":46.6816,"lon":8.7786,"fuel":"hydro","tier":"100-500MW","year":1968},{"name":"Biaschina","mw":141,"lat":46.372,"lon":8.9161,"fuel":"hydro","tier":"100-500MW","year":1966},{"name":"Bavona","mw":140,"lat":46.4114,"lon":8.6174,"fuel":"hydro","tier":"100-500MW","year":1966},{"name":"Fionnay (Mauvoisin)","mw":140,"lat":46.1573,"lon":7.2092,"fuel":"hydro","tier":"100-500MW","year":1958},{"name":"Etzelwerk Altendorf","mw":135,"lat":47.1631,"lon":8.7848,"fuel":"hydro","tier":"100-500MW","year":1937},{"name":"Gordola","mw":133,"lat":46.1825,"lon":8.8573,"fuel":"hydro","tier":"100-500MW","year":1965},{"name":"Amsteg","mw":120,"lat":46.7713,"lon":8.6696,"fuel":"hydro","tier":"100-500MW","year":1923},{"name":"Verbano 1","mw":119,"lat":46.1201,"lon":8.7118,"fuel":"hydro","tier":"100-500MW","year":1953},{"name":"Cavergno","mw":114,"lat":46.3452,"lon":8.6062,"fuel":"hydro","tier":"100-500MW","year":1955},{"name":"Laufenburg","mw":110,"lat":47.5598,"lon":8.0622,"fuel":"hydro","tier":"100-500MW","year":1914},{"name":"Verbois","mw":103,"lat":46.1927,"lon":6.0281,"fuel":"hydro","tier":"100-500MW","year":1943},{"name":"Olivone","mw":102,"lat":46.5296,"lon":8.9436,"fuel":"hydro","tier":"100-500MW","year":1962},{"name":"Castasegna","mw":100,"lat":46.3339,"lon":9.5179,"fuel":"hydro","tier":"100-500MW","year":1959},{"name":"Handeck 1","mw":100,"lat":46.6167,"lon":8.3077,"fuel":"hydro","tier":"100-500MW","year":1932}]}