{"iso3":"CHE","count":49,"source":{"label":"GEM Global Integrated Power Tracker (Mar 2026)","url":"https://globalenergymonitor.org/projects/global-integrated-power-tracker/","year":2026},"byFuel":{"nuclear":3,"hydro":46},"byTier":{"1-2GW":4,"500MW-1GW":2,"100-500MW":43},"plants":[{"name":"Leibstadt nuclear power plant","mw":1275,"lat":47.6012,"lon":8.1845,"fuel":"nuclear","tier":"1-2GW","year":1984},{"name":"Bieudron hydroelectric plant","mw":1260,"lat":46.183,"lon":7.2515,"fuel":"hydro","tier":"1-2GW","year":1999},{"name":"Goesgen nuclear power plant","mw":1060,"lat":47.3656,"lon":7.968,"fuel":"nuclear","tier":"1-2GW","year":1979},{"name":"Limmern hydroelectric plant","mw":1000,"lat":46.849,"lon":9.0125,"fuel":"hydro","tier":"1-2GW","year":2016},{"name":"Nant De Drance hydroelectric plant","mw":900,"lat":46.0625,"lon":6.8982,"fuel":"hydro","tier":"500MW-1GW","year":2022},{"name":"Beznau nuclear power plant","mw":760,"lat":47.552,"lon":8.2281,"fuel":"nuclear","tier":"500MW-1GW","year":1969},{"name":"Nendaz hydroelectric plant","mw":392,"lat":46.183,"lon":7.2515,"fuel":"hydro","tier":"100-500MW","year":1960},{"name":"Grimsel 2 hydroelectric plant","mw":388,"lat":46.5681,"lon":8.3193,"fuel":"hydro","tier":"100-500MW","year":1981},{"name":"Tierfehd Limmern hydroelectric plant","mw":352,"lat":46.8761,"lon":8.987,"fuel":"hydro","tier":"100-500MW","year":1964},{"name":"Bitsch hydroelectric plant","mw":340,"lat":46.3336,"lon":8.0076,"fuel":"hydro","tier":"100-500MW","year":1969},{"name":"Biasca hydroelectric plant","mw":324,"lat":46.335,"lon":8.9826,"fuel":"hydro","tier":"100-500MW","year":1959},{"name":"Fionnay-Dixence hydroelectric plant","mw":306,"lat":46.0357,"lon":7.3034,"fuel":"hydro","tier":"100-500MW","year":1957},{"name":"Pradella hydroelectric plant","mw":300,"lat":46.8046,"lon":10.3337,"fuel":"hydro","tier":"100-500MW","year":1970},{"name":"Mapragg hydroelectric plant","mw":280,"lat":46.9484,"lon":9.4813,"fuel":"hydro","tier":"100-500MW","year":1977},{"name":"Riddes hydroelectric plant","mw":258,"lat":46.1574,"lon":7.2093,"fuel":"hydro","tier":"100-500MW","year":1956},{"name":"Sils hydroelectric plant","mw":247,"lat":46.7031,"lon":9.4666,"fuel":"hydro","tier":"100-500MW","year":1961},{"name":"Innertkirchen-I hydroelectric plant","mw":240,"lat":46.7011,"lon":8.2389,"fuel":"hydro","tier":"100-500MW","year":1943},{"name":"Veytaux hydroelectric plant","mw":240,"lat":46.4102,"lon":6.9317,"fuel":"hydro","tier":"100-500MW","year":1972},{"name":"Veytaux II hydroelectric plant","mw":240,"lat":46.4102,"lon":6.9317,"fuel":"hydro","tier":"100-500MW","year":2017},{"name":"Barenburg hydroelectric plant","mw":220,"lat":46.5902,"lon":9.4214,"fuel":"hydro","tier":"100-500MW","year":1962},{"name":"Mittelbünden hydroelectric plant","mw":198,"lat":46.6644,"lon":9.5627,"fuel":"hydro","tier":"100-500MW","year":1910},{"name":"Robiei hydroelectric plant","mw":192,"lat":46.445,"lon":8.5089,"fuel":"hydro","tier":"100-500MW","year":1968},{"name":"Stalden hydroelectric plant","mw":185,"lat":46.2302,"lon":7.8572,"fuel":"hydro","tier":"100-500MW","year":1965},{"name":"Ferrera 1 hydroelectric plant","mw":180,"lat":46.5329,"lon":9.4342,"fuel":"hydro","tier":"100-500MW","year":1962},{"name":"Tavanasa hydroelectric plant","mw":180,"lat":46.751,"lon":9.0469,"fuel":"hydro","tier":"100-500MW","year":1962},{"name":"La Batiaz hydroelectric plant","mw":170,"lat":46.1098,"lon":7.0618,"fuel":"hydro","tier":"100-500MW","year":1978},{"name":"Göscheneralp hydroelectric plant","mw":165,"lat":46.6674,"lon":8.5853,"fuel":"hydro","tier":"100-500MW","year":1962},{"name":"Innertkirchen-I E hydroelectric plant","mw":150,"lat":46.7011,"lon":8.2389,"fuel":"hydro","tier":"100-500MW","year":2016},{"name":"Sedrun hydroelectric plant","mw":150,"lat":46.6701,"lon":8.7686,"fuel":"hydro","tier":"100-500MW","year":1968},{"name":"Nuova Biaschina hydroelectric plant","mw":141,"lat":46.365,"lon":8.9288,"fuel":"hydro","tier":"100-500MW","year":1966},{"name":"Bavona hydroelectric plant","mw":140,"lat":46.4104,"lon":8.5376,"fuel":"hydro","tier":"100-500MW","year":1966},{"name":"Fionnay-Mauvoisin hydroelectric plant","mw":140,"lat":46.0304,"lon":7.308,"fuel":"hydro","tier":"100-500MW","year":1958},{"name":"Etzelwerk Altendorf hydroelectric plant","mw":135,"lat":47.1941,"lon":8.8129,"fuel":"hydro","tier":"100-500MW","year":1937},{"name":"Rothenbrunnen hydroelectric plant","mw":135,"lat":46.7659,"lon":9.4182,"fuel":"hydro","tier":"100-500MW","year":1958},{"name":"Gordola hydroelectric plant","mw":133,"lat":46.1942,"lon":8.8491,"fuel":"hydro","tier":"100-500MW","year":1965},{"name":"Tierfehd Umwaelzwerk hydroelectric plant","mw":131,"lat":46.8787,"lon":8.9851,"fuel":"hydro","tier":"100-500MW","year":2010},{"name":"Handeck II hydroelectric plant","mw":126,"lat":46.6147,"lon":8.3036,"fuel":"hydro","tier":"100-500MW","year":1950},{"name":"Lötschen hydroelectric plant","mw":122,"lat":46.3197,"lon":7.7443,"fuel":"hydro","tier":"100-500MW","year":1976},{"name":"Amsteg hydroelectric plant","mw":120,"lat":46.7668,"lon":8.6729,"fuel":"hydro","tier":"100-500MW","year":1923},{"name":"Verbano 1 hydroelectric plant","mw":119,"lat":46.1318,"lon":8.7168,"fuel":"hydro","tier":"100-500MW","year":1953},{"name":"Cavergno hydroelectric plant","mw":114,"lat":46.3536,"lon":8.5953,"fuel":"hydro","tier":"100-500MW","year":1955},{"name":"Le Chatelard hydroelectric plant","mw":112,"lat":46.062,"lon":6.9586,"fuel":"hydro","tier":"100-500MW","year":1923},{"name":"Vernayaz hydroelectric plant","mw":107,"lat":46.1332,"lon":7.036,"fuel":"hydro","tier":"100-500MW","year":1928},{"name":"Verbois hydroelectric plant","mw":103,"lat":46.1914,"lon":6.0274,"fuel":"hydro","tier":"100-500MW","year":1943},{"name":"Olivone hydroelectric plant","mw":102,"lat":46.5397,"lon":8.9491,"fuel":"hydro","tier":"100-500MW","year":1962},{"name":"Birsfelden hydroelectric plant","mw":100,"lat":47.5599,"lon":7.6264,"fuel":"hydro","tier":"100-500MW","year":1955},{"name":"Castasegna hydroelectric plant","mw":100,"lat":46.3361,"lon":9.5154,"fuel":"hydro","tier":"100-500MW","year":1959},{"name":"Handeck I hydroelectric plant","mw":100,"lat":46.6167,"lon":8.3074,"fuel":"hydro","tier":"100-500MW","year":1928},{"name":"Sarelli hydroelectric plant","mw":100,"lat":46.9776,"lon":9.5383,"fuel":"hydro","tier":"100-500MW","year":1978}]}