{"iso3":"HND","count":5,"byFuel":{"oil":2,"hydro":1,"wind":1,"solar":1},"byTier":{"100-500MW":5},"plants":[{"name":"ENERSA Choloma","mw":371,"lat":15.5971,"lon":-87.9369,"fuel":"oil","tier":"100-500MW","year":null},{"name":"Fransisco Morazan (el Cajon)","mw":300,"lat":15.0293,"lon":-87.7455,"fuel":"hydro","tier":"100-500MW","year":null},{"name":"Lufussa III","mw":231,"lat":13.4047,"lon":-87.3269,"fuel":"oil","tier":"100-500MW","year":null},{"name":"Cerra de Hula","mw":126,"lat":13.9321,"lon":-87.2324,"fuel":"wind","tier":"100-500MW","year":null},{"name":"Valle Solar Park","mw":100,"lat":13.5158,"lon":-87.5564,"fuel":"solar","tier":"100-500MW","year":2015}]}