{"iso3":"HUN","count":10,"byFuel":{"nuclear":1,"coal":2,"gas":6,"oil":1},"byTier":{"1-2GW":1,"500MW-1GW":3,"100-500MW":6},"plants":[{"name":"Paksi Atomerőmű","mw":1887,"lat":46.5739,"lon":18.8536,"fuel":"nuclear","tier":"1-2GW","year":null},{"name":"Matra power station","mw":884,"lat":47.7886,"lon":20.066,"fuel":"coal","tier":"500MW-1GW","year":1983},{"name":"Tiszai Erőmű","mw":864,"lat":47.9178,"lon":21.0784,"fuel":"gas","tier":"500MW-1GW","year":null},{"name":"Dunamenti Erőmű","mw":841,"lat":47.3283,"lon":18.9169,"fuel":"gas","tier":"500MW-1GW","year":null},{"name":"Gönyűi Erőmű","mw":427,"lat":47.7384,"lon":17.8033,"fuel":"gas","tier":"100-500MW","year":null},{"name":"Alpiq Csepel Erőmű","mw":401,"lat":47.428,"lon":19.0525,"fuel":"gas","tier":"100-500MW","year":null},{"name":"Oroszlány power station","mw":250,"lat":47.5017,"lon":18.2701,"fuel":"coal","tier":"100-500MW","year":1962},{"name":"Kelenföldi Erőmű","mw":173,"lat":47.4624,"lon":19.0563,"fuel":"gas","tier":"100-500MW","year":null},{"name":"Lőrinci Gázturbinás Erőmű","mw":170,"lat":47.7164,"lon":19.6778,"fuel":"oil","tier":"100-500MW","year":null},{"name":"Kispesti Erőmű","mw":109,"lat":47.4568,"lon":19.1673,"fuel":"gas","tier":"100-500MW","year":null}]}