{"iso3":"ISL","count":9,"source":{"label":"WRI Global Power Plant Database v1.3","url":"https://datasets.wri.org/dataset/globalpowerplantdatabase","year":2021},"byFuel":{"hydro":6,"geothermal":3},"byTier":{"500MW-1GW":1,"100-500MW":8},"plants":[{"name":"Fljótsdalsvirkjun (Kárahnjúkar )","mw":690,"lat":64.9471,"lon":-15.7931,"fuel":"hydro","tier":"500MW-1GW","year":2008},{"name":"Búrfell","mw":270,"lat":64.1052,"lon":-19.8335,"fuel":"hydro","tier":"100-500MW","year":1969},{"name":"Hellisheiði","mw":213,"lat":64.0373,"lon":-21.4007,"fuel":"geothermal","tier":"100-500MW","year":2006},{"name":"Hrauneyjafoss","mw":210,"lat":64.2009,"lon":-19.2406,"fuel":"hydro","tier":"100-500MW","year":1981},{"name":"Blanda","mw":150,"lat":65.4158,"lon":-19.8198,"fuel":"hydro","tier":"100-500MW","year":1991},{"name":"Sigalda","mw":150,"lat":64.1733,"lon":-19.1272,"fuel":"hydro","tier":"100-500MW","year":1977},{"name":"Nesjavellir","mw":120,"lat":64.1081,"lon":-21.2567,"fuel":"geothermal","tier":"100-500MW","year":1998},{"name":"Sultartangi","mw":120,"lat":64.1672,"lon":-19.6212,"fuel":"hydro","tier":"100-500MW","year":1999},{"name":"Reykjanes","mw":100,"lat":63.8251,"lon":-22.6848,"fuel":"geothermal","tier":"100-500MW","year":1977}]}