{"iso3":"JPN","count":248,"source":{"label":"GEM Global Integrated Power Tracker (Mar 2026)","url":"https://globalenergymonitor.org/projects/global-integrated-power-tracker/","year":2026},"byFuel":{"gas":70,"coal":67,"nuclear":8,"hydro":65,"oil":16,"solar":13,"biofuel":2,"wind":6,"geothermal":1},"byTier":{"2GW+":27,"1-2GW":50,"500MW-1GW":39,"100-500MW":132},"plants":[{"name":"Futtsu thermal power station","mw":5334,"lat":35.3447,"lon":139.8349,"fuel":"gas","tier":"2GW+","year":1985},{"name":"Kawagoe thermal power station","mw":4802,"lat":35.0079,"lon":136.6873,"fuel":"gas","tier":"2GW+","year":1989},{"name":"Chiba thermal power station","mw":4380,"lat":35.5646,"lon":140.1056,"fuel":"gas","tier":"2GW+","year":1998},{"name":"Higashi Niigata thermal power station","mw":4110,"lat":38,"lon":139.2416,"fuel":"gas","tier":"2GW+","year":1977},{"name":"Hekinan power station","mw":4100,"lat":34.8346,"lon":136.9593,"fuel":"coal","tier":"2GW+","year":1991},{"name":"Sodegaura thermal power station","mw":3600,"lat":35.4626,"lon":139.9768,"fuel":"gas","tier":"2GW+","year":1974},{"name":"Kawasaki thermal power station","mw":3420,"lat":35.5128,"lon":139.7623,"fuel":"gas","tier":"2GW+","year":2007},{"name":"Takahama nuclear power plant","mw":3392,"lat":35.5223,"lon":135.5036,"fuel":"nuclear","tier":"2GW+","year":1974},{"name":"Anegasaki thermal power station","mw":3150,"lat":35.4849,"lon":140.018,"fuel":"gas","tier":"2GW+","year":1977},{"name":"Shin-Nagoya thermal power station","mw":3058,"lat":35.0663,"lon":136.8794,"fuel":"gas","tier":"2GW+","year":1998},{"name":"Yokohama thermal power station","mw":3016,"lat":35.477,"lon":139.6779,"fuel":"gas","tier":"2GW+","year":1996},{"name":"Himeji Daini power station","mw":2919,"lat":34.7722,"lon":134.6889,"fuel":"gas","tier":"2GW+","year":2013},{"name":"Shin Oita power station","mw":2875,"lat":33.2627,"lon":131.7077,"fuel":"gas","tier":"2GW+","year":1991},{"name":"Kobe power station","mw":2700,"lat":34.7032,"lon":135.2394,"fuel":"coal","tier":"2GW+","year":2002},{"name":"Joetsu thermal power station","mw":2380,"lat":37.2061,"lon":138.2785,"fuel":"gas","tier":"2GW+","year":2012},{"name":"Nishi-Nagoya thermal power station","mw":2376,"lat":35.0319,"lon":136.832,"fuel":"gas","tier":"2GW+","year":2017},{"name":"Ohi nuclear power plant","mw":2360,"lat":35.5424,"lon":135.6544,"fuel":"nuclear","tier":"2GW+","year":1991},{"name":"Genkai nuclear power plant","mw":2360,"lat":33.5152,"lon":129.836,"fuel":"nuclear","tier":"2GW+","year":1994},{"name":"Shin Goi power station","mw":2340,"lat":35.5469,"lon":140.0725,"fuel":"gas","tier":"2GW+","year":2024},{"name":"J-POWER Tachibana-wan power station","mw":2100,"lat":33.8586,"lon":134.6513,"fuel":"coal","tier":"2GW+","year":2000},{"name":"Higashi-Ohgishima thermal power station","mw":2000,"lat":35.4949,"lon":139.7456,"fuel":"gas","tier":"2GW+","year":1987},{"name":"Sakai Port power station","mw":2000,"lat":34.5703,"lon":135.4419,"fuel":"gas","tier":"2GW+","year":2009},{"name":"Haramachi power station","mw":2000,"lat":37.6657,"lon":141.0148,"fuel":"coal","tier":"2GW+","year":1997},{"name":"Hitachinaka power station","mw":2000,"lat":36.4368,"lon":140.6138,"fuel":"coal","tier":"2GW+","year":2003},{"name":"Matsuura J-POWER power station","mw":2000,"lat":33.3564,"lon":129.692,"fuel":"coal","tier":"2GW+","year":1990},{"name":"Misumi power station","mw":2000,"lat":34.7808,"lon":131.9218,"fuel":"coal","tier":"2GW+","year":1998},{"name":"Shinchi power station","mw":2000,"lat":37.8411,"lon":140.9462,"fuel":"coal","tier":"2GW+","year":1994},{"name":"Nakoso power station","mw":1975,"lat":36.9128,"lon":140.8128,"fuel":"coal","tier":"1-2GW","year":1970},{"name":"Okutataragi hydroelectric plant","mw":1932,"lat":35.2373,"lon":134.834,"fuel":"hydro","tier":"1-2GW","year":1974},{"name":"Nanko power station","mw":1800,"lat":34.6161,"lon":135.4046,"fuel":"gas","tier":"1-2GW","year":1990},{"name":"Maizuru power station","mw":1800,"lat":35.5254,"lon":135.3456,"fuel":"coal","tier":"1-2GW","year":2004},{"name":"Noshiro power station","mw":1800,"lat":40.191,"lon":139.9896,"fuel":"coal","tier":"1-2GW","year":1993},{"name":"Sendai nuclear power plant","mw":1780,"lat":31.8335,"lon":130.1887,"fuel":"nuclear","tier":"1-2GW","year":1984},{"name":"Hirono power station","mw":1743,"lat":37.2327,"lon":141.0138,"fuel":"coal","tier":"1-2GW","year":2004},{"name":"Chita Daini thermal power station","mw":1708,"lat":35.0065,"lon":136.864,"fuel":"gas","tier":"1-2GW","year":1994},{"name":"Chita thermal power station","mw":1708,"lat":34.9869,"lon":136.8441,"fuel":"gas","tier":"1-2GW","year":1994},{"name":"Matsuura Kyushu power station","mw":1700,"lat":33.3504,"lon":129.6832,"fuel":"coal","tier":"1-2GW","year":1989},{"name":"Toyama Shinko power station","mw":1665,"lat":36.7657,"lon":137.1287,"fuel":"gas","tier":"1-2GW","year":1971},{"name":"Tomatouatsuma power station","mw":1650,"lat":42.6076,"lon":141.8084,"fuel":"coal","tier":"1-2GW","year":1980},{"name":"Yanai power station","mw":1578,"lat":33.9536,"lon":132.1244,"fuel":"gas","tier":"1-2GW","year":1992},{"name":"Okumino hydroelectric plant","mw":1500,"lat":35.7348,"lon":136.6615,"fuel":"hydro","tier":"1-2GW","year":1994},{"name":"Tobata power station","mw":1455,"lat":33.9267,"lon":130.8476,"fuel":"gas","tier":"1-2GW","year":1971},{"name":"Himeji Daiichi power station","mw":1442,"lat":34.773,"lon":134.6666,"fuel":"gas","tier":"1-2GW","year":1995},{"name":"Reihoku power station","mw":1400,"lat":32.4851,"lon":130.0421,"fuel":"coal","tier":"1-2GW","year":1995},{"name":"Sakaide power station","mw":1385,"lat":34.3429,"lon":133.8429,"fuel":"gas","tier":"1-2GW","year":1970},{"name":"Takehara power station","mw":1300,"lat":34.3373,"lon":132.9572,"fuel":"coal","tier":"1-2GW","year":1983},{"name":"Yokosuka power station","mw":1300,"lat":35.2156,"lon":139.7164,"fuel":"coal","tier":"1-2GW","year":2023},{"name":"Okawachi hydroelectric plant","mw":1280,"lat":35.1315,"lon":134.7184,"fuel":"hydro","tier":"1-2GW","year":1992},{"name":"Shintakasegawa hydroelectric plant","mw":1280,"lat":36.4833,"lon":137.7212,"fuel":"hydro","tier":"1-2GW","year":1979},{"name":"Kashima thermal power station","mw":1260,"lat":35.917,"lon":140.7017,"fuel":"gas","tier":"1-2GW","year":2014},{"name":"Moka power plant","mw":1248,"lat":36.4572,"lon":139.974,"fuel":"gas","tier":"1-2GW","year":2019},{"name":"Ohgishima power station","mw":1221,"lat":35.4791,"lon":139.7022,"fuel":"gas","tier":"1-2GW","year":2010},{"name":"Okuyoshino hydroelectric plant","mw":1206,"lat":34.1137,"lon":135.824,"fuel":"hydro","tier":"1-2GW","year":1978},{"name":"Ako power station","mw":1200,"lat":34.7517,"lon":134.3931,"fuel":"oil","tier":"1-2GW","year":1987},{"name":"Gobo power station","mw":1200,"lat":33.8602,"lon":135.1525,"fuel":"oil","tier":"1-2GW","year":1984},{"name":"Shin Kokura thermal power station","mw":1200,"lat":33.9066,"lon":130.8599,"fuel":"gas","tier":"1-2GW","year":1978},{"name":"Tamashima power station","mw":1200,"lat":34.5165,"lon":133.6871,"fuel":"oil","tier":"1-2GW","year":1972},{"name":"Isogo power station","mw":1200,"lat":35.4028,"lon":139.6429,"fuel":"coal","tier":"1-2GW","year":2002},{"name":"Nanao-Ota Shinko power station","mw":1200,"lat":37.0664,"lon":137.0037,"fuel":"coal","tier":"1-2GW","year":1995},{"name":"Tsuruga power station","mw":1200,"lat":35.6724,"lon":136.0815,"fuel":"coal","tier":"1-2GW","year":1991},{"name":"Kazunogawa hydroelectric plant","mw":1200,"lat":35.7189,"lon":138.9324,"fuel":"hydro","tier":"1-2GW","year":1999},{"name":"Matanogawa hydroelectric plant","mw":1200,"lat":36.5748,"lon":139.2394,"fuel":"hydro","tier":"1-2GW","year":1986},{"name":"Omarugawa hydroelectric plant","mw":1200,"lat":32.242,"lon":131.3913,"fuel":"hydro","tier":"1-2GW","year":2007},{"name":"Tamahara hydroelectric plant","mw":1200,"lat":36.8009,"lon":139.0468,"fuel":"hydro","tier":"1-2GW","year":1982},{"name":"Soma Port Gas power station","mw":1180,"lat":37.8492,"lon":140.9529,"fuel":"gas","tier":"1-2GW","year":2020},{"name":"Kimitsu power station","mw":1153,"lat":35.3693,"lon":139.8615,"fuel":"gas","tier":"1-2GW","year":1970},{"name":"Minami Yokohama thermal power station","mw":1150,"lat":35.4044,"lon":139.6372,"fuel":"gas","tier":"1-2GW","year":1970},{"name":"Shinagawa thermal power station","mw":1140,"lat":35.6206,"lon":139.7564,"fuel":"gas","tier":"1-2GW","year":2001},{"name":"Shintoyone hydroelectric plant","mw":1125,"lat":35.1319,"lon":137.7905,"fuel":"hydro","tier":"1-2GW","year":1973},{"name":"Senboku Natural Gas power plant","mw":1109,"lat":34.5417,"lon":135.4029,"fuel":"gas","tier":"1-2GW","year":2009},{"name":"Taketoyo power station","mw":1070,"lat":34.845,"lon":136.9617,"fuel":"coal","tier":"1-2GW","year":2022},{"name":"Imaichi hydroelectric plant","mw":1050,"lat":36.8336,"lon":139.6696,"fuel":"hydro","tier":"1-2GW","year":1988},{"name":"Shin Sendai thermal power station","mw":1046,"lat":38.2763,"lon":141.0408,"fuel":"gas","tier":"1-2GW","year":2015},{"name":"Kashima Kyodo power station","mw":1000,"lat":35.9416,"lon":140.6881,"fuel":"gas","tier":"1-2GW","year":null},{"name":"Shin Onoda power station","mw":1000,"lat":33.969,"lon":131.1634,"fuel":"coal","tier":"1-2GW","year":1986},{"name":"Okukiyotsu hydroelectric plant","mw":1000,"lat":36.8462,"lon":138.7666,"fuel":"hydro","tier":"1-2GW","year":1978},{"name":"Shimogo hydroelectric plant","mw":1000,"lat":37.3451,"lon":139.9083,"fuel":"hydro","tier":"1-2GW","year":1988},{"name":"Kannagawa hydroelectric plant","mw":940,"lat":36.0881,"lon":138.7254,"fuel":"hydro","tier":"500MW-1GW","year":2005},{"name":"Shiobara hydroelectric plant","mw":900,"lat":36.9954,"lon":139.8683,"fuel":"hydro","tier":"500MW-1GW","year":1994},{"name":"Ikata nuclear power plant","mw":890,"lat":33.4909,"lon":132.3088,"fuel":"nuclear","tier":"500MW-1GW","year":1994},{"name":"Fukuyama Joint power station","mw":868,"lat":34.4794,"lon":133.4421,"fuel":"gas","tier":"500MW-1GW","year":1970},{"name":"Kawasaki Natural Gas power station","mw":847,"lat":35.4989,"lon":139.7252,"fuel":"gas","tier":"500MW-1GW","year":2008},{"name":"Mihama nuclear power plant","mw":826,"lat":35.7024,"lon":135.9634,"fuel":"nuclear","tier":"500MW-1GW","year":1976},{"name":"Onagawa nuclear power plant","mw":825,"lat":38.3987,"lon":141.5003,"fuel":"nuclear","tier":"500MW-1GW","year":2024},{"name":"Shimane nuclear power plant","mw":820,"lat":35.5383,"lon":132.9992,"fuel":"nuclear","tier":"500MW-1GW","year":2024},{"name":"JR East Kawasaki power plant","mw":796,"lat":35.4981,"lon":139.7189,"fuel":"gas","tier":"500MW-1GW","year":1981},{"name":"Okumino Daini hydroelectric plant","mw":780,"lat":35.2288,"lon":137.4447,"fuel":"hydro","tier":"500MW-1GW","year":1980},{"name":"Saijo power station","mw":750,"lat":33.9327,"lon":133.1677,"fuel":"coal","tier":"500MW-1GW","year":1970},{"name":"Atsumi Thermal power station","mw":700,"lat":34.6543,"lon":137.0676,"fuel":"oil","tier":"500MW-1GW","year":1981},{"name":"Date power station","mw":700,"lat":42.4833,"lon":140.829,"fuel":"oil","tier":"500MW-1GW","year":1978},{"name":"Shiriuchi power station","mw":700,"lat":41.582,"lon":140.4249,"fuel":"oil","tier":"500MW-1GW","year":1983},{"name":"Sakata Kyodo power station","mw":700,"lat":38.9674,"lon":139.8322,"fuel":"coal","tier":"500MW-1GW","year":1977},{"name":"Shikoku Tachibana-wan power station","mw":700,"lat":33.8642,"lon":134.6546,"fuel":"coal","tier":"500MW-1GW","year":2000},{"name":"Numappara hydroelectric plant","mw":675,"lat":37.1006,"lon":139.9056,"fuel":"hydro","tier":"500MW-1GW","year":1973},{"name":"Oita Co-operative power plant","mw":657,"lat":33.2714,"lon":131.7041,"fuel":"gas","tier":"500MW-1GW","year":1972},{"name":"Hitachinaka Generation","mw":650,"lat":36.4368,"lon":140.6138,"fuel":"coal","tier":"500MW-1GW","year":2021},{"name":"Kashima Works power station","mw":645,"lat":35.9471,"lon":140.6887,"fuel":"coal","tier":"500MW-1GW","year":2020},{"name":"Nanyo Complex power station","mw":630,"lat":34.0555,"lon":131.758,"fuel":"coal","tier":"500MW-1GW","year":1974},{"name":"Mizushima power plant","mw":625,"lat":34.508,"lon":133.7462,"fuel":"gas","tier":"500MW-1GW","year":2006},{"name":"Azumi hydroelectric plant","mw":623,"lat":36.1332,"lon":137.7197,"fuel":"hydro","tier":"500MW-1GW","year":1969},{"name":"Nabara hydroelectric plant","mw":620,"lat":34.5633,"lon":132.5179,"fuel":"hydro","tier":"500MW-1GW","year":1976},{"name":"Kurashiki Joint power station","mw":617,"lat":34.49,"lon":133.7191,"fuel":"gas","tier":"500MW-1GW","year":1970},{"name":"Hongawa hydroelectric plant","mw":615,"lat":33.7663,"lon":133.3455,"fuel":"hydro","tier":"500MW-1GW","year":1982},{"name":"Hirono Thermal power station","mw":600,"lat":37.2367,"lon":141.0159,"fuel":"oil","tier":"500MW-1GW","year":1980},{"name":"Okukiyotsu Daini hydroelectric plant","mw":600,"lat":36.8474,"lon":138.767,"fuel":"hydro","tier":"500MW-1GW","year":1996},{"name":"Tenzan hydroelectric plant","mw":600,"lat":33.3397,"lon":130.1112,"fuel":"hydro","tier":"500MW-1GW","year":1986},{"name":"Yokkaichi thermal power station","mw":585,"lat":34.974,"lon":136.6459,"fuel":"gas","tier":"500MW-1GW","year":1988},{"name":"Joetsu power station","mw":572,"lat":37.2061,"lon":138.2785,"fuel":"gas","tier":"500MW-1GW","year":2023},{"name":"Ishikariwan Shinko power station","mw":569,"lat":43.1932,"lon":141.276,"fuel":"gas","tier":"500MW-1GW","year":2019},{"name":"T-Point 2 power station","mw":566,"lat":34.7462,"lon":134.7848,"fuel":"gas","tier":"500MW-1GW","year":2020},{"name":"Okutadami hydroelectric plant","mw":560,"lat":37.1544,"lon":139.2501,"fuel":"hydro","tier":"500MW-1GW","year":1960},{"name":"Nippon Steel (NSC) Kashima Works power station","mw":522,"lat":35.9471,"lon":140.6887,"fuel":"coal","tier":"500MW-1GW","year":2007},{"name":"Yoshinoura thermal power plant","mw":502,"lat":26.2767,"lon":127.8132,"fuel":"gas","tier":"500MW-1GW","year":2012},{"name":"Buzen power station","mw":500,"lat":33.6261,"lon":131.1187,"fuel":"oil","tier":"500MW-1GW","year":1980},{"name":"Takasago power station","mw":500,"lat":34.754,"lon":134.7664,"fuel":"coal","tier":"500MW-1GW","year":1968},{"name":"Ohira hydroelectric plant","mw":500,"lat":32.4256,"lon":130.7062,"fuel":"hydro","tier":"500MW-1GW","year":1975},{"name":"Sendai Tohoku power station","mw":468,"lat":38.3178,"lon":141.0745,"fuel":"gas","tier":"100-500MW","year":2010},{"name":"Kisenyama hydroelectric plant","mw":466,"lat":34.896,"lon":135.8592,"fuel":"hydro","tier":"100-500MW","year":1970},{"name":"Numazawa Daini hydroelectric plant","mw":460,"lat":37.4542,"lon":139.6062,"fuel":"hydro","tier":"100-500MW","year":1982},{"name":"Anan power station","mw":450,"lat":33.8807,"lon":134.6525,"fuel":"oil","tier":"100-500MW","year":1975},{"name":"Tokuyama East power station","mw":445,"lat":34.0365,"lon":131.7939,"fuel":"coal","tier":"100-500MW","year":1999},{"name":"Kin power station","mw":440,"lat":26.4466,"lon":127.9218,"fuel":"coal","tier":"100-500MW","year":2002},{"name":"Daio Mishima Mill power station","mw":419,"lat":33.9895,"lon":133.5512,"fuel":"coal","tier":"100-500MW","year":1960},{"name":"Hachinohe thermal power station","mw":416,"lat":40.5345,"lon":141.5061,"fuel":"gas","tier":"100-500MW","year":2015},{"name":"Azumi Pumped Storage hydroelectric plant","mw":412,"lat":36.1332,"lon":137.7197,"fuel":"hydro","tier":"100-500MW","year":1969},{"name":"Kyogoku hydroelectric plant","mw":400,"lat":42.9581,"lon":140.9493,"fuel":"hydro","tier":"100-500MW","year":2014},{"name":"Tagokura hydroelectric plant","mw":400,"lat":37.3118,"lon":139.2882,"fuel":"hydro","tier":"100-500MW","year":1959},{"name":"Kawatetsu Chiba Clean power station","mw":398,"lat":35.5709,"lon":140.1078,"fuel":"gas","tier":"100-500MW","year":2002},{"name":"Tokuyama Central power station","mw":372,"lat":34.044,"lon":131.7974,"fuel":"coal","tier":"100-500MW","year":1987},{"name":"Ishikawa Uruma power station","mw":353,"lat":26.4295,"lon":127.8403,"fuel":"oil","tier":"100-500MW","year":1974},{"name":"Ikehara hydroelectric plant","mw":350,"lat":34.0476,"lon":135.9735,"fuel":"hydro","tier":"100-500MW","year":1964},{"name":"Sakuma hydroelectric plant","mw":350,"lat":35.0916,"lon":137.8071,"fuel":"hydro","tier":"100-500MW","year":1956},{"name":"Negishi Refinery power station","mw":342,"lat":35.4152,"lon":139.6375,"fuel":"gas","tier":"100-500MW","year":2003},{"name":"Takane Daiichi hydroelectric plant","mw":340,"lat":36.0353,"lon":137.4921,"fuel":"hydro","tier":"100-500MW","year":1969},{"name":"Kurobegawa Daishi hydroelectric plant","mw":335,"lat":36.6441,"lon":137.6902,"fuel":"hydro","tier":"100-500MW","year":1961},{"name":"Nippon Steel Oita Works power station","mw":330,"lat":33.2691,"lon":131.6494,"fuel":"coal","tier":"100-500MW","year":2002},{"name":"Okumino Daiichi hydroelectric plant","mw":323,"lat":35.1974,"lon":137.4744,"fuel":"hydro","tier":"100-500MW","year":1980},{"name":"Gushikawa power station","mw":312,"lat":26.3792,"lon":127.8757,"fuel":"coal","tier":"100-500MW","year":1994},{"name":"Ishikawa power station","mw":312,"lat":26.4307,"lon":127.8423,"fuel":"coal","tier":"100-500MW","year":1986},{"name":"Wakayama Joint power station","mw":304,"lat":34.2639,"lon":135.0631,"fuel":"gas","tier":"100-500MW","year":1970},{"name":"Shin Narihagawa hydroelectric plant","mw":303,"lat":34.8228,"lon":133.4019,"fuel":"hydro","tier":"100-500MW","year":1968},{"name":"Niihama Nishi power station","mw":300,"lat":33.9546,"lon":133.2492,"fuel":"coal","tier":"100-500MW","year":1959},{"name":"Hirohata Works power station","mw":298,"lat":34.7878,"lon":134.6237,"fuel":"coal","tier":"100-500MW","year":1996},{"name":"Makiminato Thermal power plant","mw":288,"lat":26.2692,"lon":127.7201,"fuel":"oil","tier":"100-500MW","year":1981},{"name":"Mazegawa Daiichi hydroelectric plant","mw":288,"lat":35.7585,"lon":137.1568,"fuel":"hydro","tier":"100-500MW","year":1976},{"name":"JFE Steel West power station","mw":282,"lat":35.5827,"lon":140.0969,"fuel":"gas","tier":"100-500MW","year":1984},{"name":"Mizue Thermal power plant","mw":277,"lat":35.5127,"lon":139.7399,"fuel":"gas","tier":"100-500MW","year":2003},{"name":"Arimine Daiichi hydroelectric plant","mw":265,"lat":36.5444,"lon":137.4516,"fuel":"hydro","tier":"100-500MW","year":1981},{"name":"Nagoya power station","mw":259,"lat":34.844,"lon":136.9269,"fuel":"coal","tier":"100-500MW","year":2000},{"name":"Pacifico Energy Sakuto Mega-Solar Project","mw":258,"lat":34.987,"lon":134.243,"fuel":"solar","tier":"100-500MW","year":2019},{"name":"Fukui Thermal power station","mw":250,"lat":36.2104,"lon":136.1335,"fuel":"oil","tier":"100-500MW","year":1978},{"name":"Tomakomai power station","mw":250,"lat":42.6388,"lon":141.6599,"fuel":"gas","tier":"100-500MW","year":1973},{"name":"Toyama Thermal power station","mw":250,"lat":36.763,"lon":137.1271,"fuel":"oil","tier":"100-500MW","year":1971},{"name":"Nyugawa power station","mw":250,"lat":33.934,"lon":133.1154,"fuel":"coal","tier":"100-500MW","year":1975},{"name":"Sunagawa power station","mw":250,"lat":43.4647,"lon":141.8912,"fuel":"coal","tier":"100-500MW","year":1977},{"name":"Shiroyama hydroelectric plant","mw":250,"lat":35.9575,"lon":139.8671,"fuel":"hydro","tier":"100-500MW","year":1965},{"name":"Tedorigawa Daiichi hydroelectric plant","mw":250,"lat":36.2817,"lon":136.6448,"fuel":"hydro","tier":"100-500MW","year":1979},{"name":"NSC Muroran Works power station","mw":245,"lat":42.3507,"lon":140.993,"fuel":"coal","tier":"100-500MW","year":2001},{"name":"Midono hydroelectric plant","mw":245,"lat":36.1559,"lon":137.7525,"fuel":"hydro","tier":"100-500MW","year":1969},{"name":"Tokyo Gas Yokosuka power station","mw":240,"lat":35.3113,"lon":139.6441,"fuel":"gas","tier":"100-500MW","year":2006},{"name":"Yagisawa hydroelectric plant","mw":240,"lat":36.9112,"lon":139.0559,"fuel":"hydro","tier":"100-500MW","year":1965},{"name":"Setouchi Kirei Mega Solar Power Plant","mw":235,"lat":34.643,"lon":134.159,"fuel":"solar","tier":"100-500MW","year":2018},{"name":"Yokkaichi Kasumi power station","mw":233,"lat":34.9808,"lon":136.6633,"fuel":"oil","tier":"100-500MW","year":2003},{"name":"Nagano hydroelectric plant","mw":220,"lat":35.8942,"lon":136.693,"fuel":"hydro","tier":"100-500MW","year":1968},{"name":"Ibaraki power plant","mw":219,"lat":36.5383,"lon":140.3811,"fuel":"gas","tier":"100-500MW","year":2012},{"name":"UBE Power Center power station","mw":216,"lat":33.9489,"lon":131.2326,"fuel":"coal","tier":"100-500MW","year":2004},{"name":"Miboro hydroelectric plant","mw":215,"lat":36.1386,"lon":136.9105,"fuel":"hydro","tier":"100-500MW","year":1961},{"name":"Shin Ojiya hydroelectric plant","mw":206,"lat":37.2878,"lon":138.8118,"fuel":"hydro","tier":"100-500MW","year":1990},{"name":"Aioi power station","mw":200,"lat":34.7748,"lon":134.4572,"fuel":"biofuel","tier":"100-500MW","year":1982},{"name":"Niikappu hydroelectric plant","mw":200,"lat":42.6058,"lon":142.5552,"fuel":"hydro","tier":"100-500MW","year":1974},{"name":"Takami hydroelectric plant","mw":200,"lat":42.4563,"lon":142.6364,"fuel":"hydro","tier":"100-500MW","year":1983},{"name":"Rinkai power station","mw":182,"lat":36.5053,"lon":140.6222,"fuel":"oil","tier":"100-500MW","year":2003},{"name":"Otori hydroelectric plant","mw":182,"lat":37.2163,"lon":139.2136,"fuel":"hydro","tier":"100-500MW","year":1963},{"name":"Hitotsuse hydroelectric plant","mw":180,"lat":32.207,"lon":131.3028,"fuel":"hydro","tier":"100-500MW","year":1963},{"name":"Shinanogawa hydroelectric plant","mw":177,"lat":36.9463,"lon":137.561,"fuel":"hydro","tier":"100-500MW","year":1939},{"name":"Miike power station","mw":175,"lat":33.0083,"lon":130.4216,"fuel":"coal","tier":"100-500MW","year":1975},{"name":"Osaki CoolGen Project","mw":166,"lat":34.2591,"lon":132.8723,"fuel":"coal","tier":"100-500MW","year":2017},{"name":"Tokuyama hydroelectric plant","mw":162,"lat":35.6647,"lon":136.5075,"fuel":"hydro","tier":"100-500MW","year":2014},{"name":"Iwanuma Mill power station","mw":159,"lat":38.0905,"lon":140.8608,"fuel":"coal","tier":"100-500MW","year":1991},{"name":"Niihama Kita thermal power station","mw":150,"lat":33.985,"lon":133.3142,"fuel":"gas","tier":"100-500MW","year":2022},{"name":"Funamachi power plant","mw":149,"lat":34.6294,"lon":135.4602,"fuel":"gas","tier":"100-500MW","year":1999},{"name":"Itoigawa power station","mw":149,"lat":37.0153,"lon":137.791,"fuel":"coal","tier":"100-500MW","year":2001},{"name":"Kamaishi Works power station","mw":149,"lat":39.2686,"lon":141.8769,"fuel":"coal","tier":"100-500MW","year":2000},{"name":"Tokai Kyodo power station","mw":149,"lat":35.0273,"lon":136.8659,"fuel":"coal","tier":"100-500MW","year":1990},{"name":"Onbetsu power station","mw":148,"lat":42.8983,"lon":143.939,"fuel":"oil","tier":"100-500MW","year":1978},{"name":"Abukuma wind power plant","mw":148,"lat":37.4086,"lon":140.8556,"fuel":"wind","tier":"100-500MW","year":2025},{"name":"Resonac Kawasaki power station","mw":147,"lat":35.53,"lon":139.705,"fuel":"gas","tier":"100-500MW","year":2003},{"name":"Onikoube Solar Power Plant","mw":147,"lat":38.7435,"lon":140.7161,"fuel":"solar","tier":"100-500MW","year":2023},{"name":"Kushiro Mill Npi power station","mw":145,"lat":43.0066,"lon":144.3586,"fuel":"coal","tier":"100-500MW","year":1986},{"name":"UBE Industries power station","mw":145,"lat":33.9495,"lon":131.2336,"fuel":"coal","tier":"100-500MW","year":1982},{"name":"Shimokotori hydroelectric plant","mw":142,"lat":36.249,"lon":137.0277,"fuel":"hydro","tier":"100-500MW","year":1973},{"name":"Torishima Energy Center","mw":141,"lat":34.6818,"lon":135.4333,"fuel":"gas","tier":"100-500MW","year":2002},{"name":"Noshiro City (Marubeni) Offshore wind farm","mw":140,"lat":40.2109,"lon":139.9768,"fuel":"wind","tier":"100-500MW","year":2023},{"name":"Ishinomaki Mill power station","mw":138,"lat":38.4188,"lon":141.2917,"fuel":"coal","tier":"100-500MW","year":1987},{"name":"Amaterasu Shiraishi solar farm","mw":135,"lat":38.0024,"lon":140.6199,"fuel":"solar","tier":"100-500MW","year":2025},{"name":"Ashikawa wind farm","mw":129,"lat":45.1982,"lon":141.7521,"fuel":"wind","tier":"100-500MW","year":2024},{"name":"Kinugawa hydroelectric plant","mw":127,"lat":36.8512,"lon":139.6869,"fuel":"hydro","tier":"100-500MW","year":1963},{"name":"Nakatsugawa Daiichi hydroelectric plant","mw":126,"lat":36.9463,"lon":138.6616,"fuel":"hydro","tier":"100-500MW","year":1924},{"name":"Maruyama hydroelectric plant","mw":125,"lat":35.4701,"lon":137.1608,"fuel":"hydro","tier":"100-500MW","year":1954},{"name":"Otozawa hydroelectric plant","mw":124,"lat":36.8449,"lon":137.5673,"fuel":"hydro","tier":"100-500MW","year":1985},{"name":"Ojiya hydroelectric plant","mw":123,"lat":37.3001,"lon":138.8079,"fuel":"hydro","tier":"100-500MW","year":1951},{"name":"Tsugaru wind farm","mw":122,"lat":40.9334,"lon":140.3352,"fuel":"wind","tier":"100-500MW","year":2020},{"name":"Kochi Cement Plant power station","mw":122,"lat":33.4034,"lon":133.3022,"fuel":"coal","tier":"100-500MW","year":1999},{"name":"Wadagawa Daini hydroelectric plant","mw":122,"lat":36.5435,"lon":137.438,"fuel":"hydro","tier":"100-500MW","year":1959},{"name":"Sanda Mega-Solar Project","mw":121,"lat":34.6904,"lon":135.1979,"fuel":"solar","tier":"100-500MW","year":2023},{"name":"Arimine Daini hydroelectric plant","mw":120,"lat":36.5748,"lon":139.2394,"fuel":"hydro","tier":"100-500MW","year":1981},{"name":"Sendaigawa Daiichi hydroelectric plant","mw":120,"lat":31.9875,"lon":130.495,"fuel":"hydro","tier":"100-500MW","year":1965},{"name":"Senju hydroelectric plant","mw":120,"lat":36.9463,"lon":137.561,"fuel":"hydro","tier":"100-500MW","year":1939},{"name":"Yomikaki hydroelectric plant","mw":117,"lat":35.5888,"lon":137.5944,"fuel":"hydro","tier":"100-500MW","year":1923},{"name":"Kiso hydroelectric plant","mw":116,"lat":35.8198,"lon":137.6783,"fuel":"hydro","tier":"100-500MW","year":1968},{"name":"Eurus Rokkasho Solar Park","mw":115,"lat":40.9243,"lon":141.353,"fuel":"solar","tier":"100-500MW","year":2015},{"name":"Mitsubishi Materials Kyushu Plant power station","mw":115,"lat":33.8005,"lon":130.9902,"fuel":"coal","tier":"100-500MW","year":1991},{"name":"Sumita Tono wind farm","mw":113,"lat":39.2358,"lon":141.4855,"fuel":"wind","tier":"100-500MW","year":2023},{"name":"Fukushima Iwaki Biomass power station","mw":112,"lat":37.0802,"lon":140.8418,"fuel":"biofuel","tier":"100-500MW","year":2022},{"name":"Shin Nakasode power station","mw":112,"lat":35.4543,"lon":139.982,"fuel":"gas","tier":"100-500MW","year":2014},{"name":"Bizen Mega-Solar Project","mw":112,"lat":34.8863,"lon":134.1363,"fuel":"solar","tier":"100-500MW","year":2020},{"name":"Ishikari Bay New Port offshore wind farm","mw":112,"lat":43.537,"lon":141.2758,"fuel":"wind","tier":"100-500MW","year":2024},{"name":"Chogoku Air Water Yamaguchi co-fire power station","mw":112,"lat":34.0425,"lon":131.5848,"fuel":"coal","tier":"100-500MW","year":2019},{"name":"Hibikinida Biomass power station","mw":112,"lat":33.94,"lon":130.7903,"fuel":"coal","tier":"100-500MW","year":2018},{"name":"Kaita power station","mw":112,"lat":34.3651,"lon":132.5253,"fuel":"coal","tier":"100-500MW","year":2021},{"name":"Kamisu power station","mw":112,"lat":35.9074,"lon":140.7064,"fuel":"coal","tier":"100-500MW","year":2018},{"name":"Kushiro power station","mw":112,"lat":42.9616,"lon":144.4055,"fuel":"coal","tier":"100-500MW","year":2020},{"name":"Mizushima MZ power station","mw":112,"lat":34.5833,"lon":133.7667,"fuel":"coal","tier":"100-500MW","year":2017},{"name":"Sendai power station","mw":112,"lat":38.2681,"lon":141.0092,"fuel":"coal","tier":"100-500MW","year":2017},{"name":"Soma Coal-Biomass power station","mw":112,"lat":37.8316,"lon":140.942,"fuel":"coal","tier":"100-500MW","year":2018},{"name":"Hatchobara geothermal power plant","mw":112,"lat":33.1053,"lon":131.1874,"fuel":"geothermal","tier":"100-500MW","year":1977},{"name":"Softbank Tomatoh Abira Solar Park","mw":111,"lat":42.7217,"lon":141.7931,"fuel":"solar","tier":"100-500MW","year":2015},{"name":"Wakayama Mega-Solar Project","mw":111,"lat":33.731,"lon":135.464,"fuel":"solar","tier":"100-500MW","year":2022},{"name":"Ichihara power plant","mw":110,"lat":35.5444,"lon":140.0933,"fuel":"gas","tier":"100-500MW","year":2004},{"name":"Nobeoka power station","mw":110,"lat":32.5733,"lon":131.6718,"fuel":"coal","tier":"100-500MW","year":2006},{"name":"Marusumi Paper Ohe Mill power station","mw":109,"lat":34.0084,"lon":133.5544,"fuel":"coal","tier":"100-500MW","year":1988},{"name":"Joetsu Green power station","mw":109,"lat":37.2553,"lon":138.3935,"fuel":"gas","tier":"100-500MW","year":2015},{"name":"Naka green power station","mw":109,"lat":35.6942,"lon":139.7333,"fuel":"gas","tier":"100-500MW","year":2022},{"name":"Niigata thermal power station","mw":109,"lat":37.9445,"lon":139.0812,"fuel":"gas","tier":"100-500MW","year":2011},{"name":"Sodegaura Green power station","mw":109,"lat":35.4515,"lon":139.964,"fuel":"gas","tier":"100-500MW","year":2012},{"name":"Akimoto hydroelectric plant","mw":108,"lat":37.6605,"lon":140.199,"fuel":"hydro","tier":"100-500MW","year":1940},{"name":"Kashima South Joint power station","mw":107,"lat":35.9169,"lon":140.7016,"fuel":"gas","tier":"100-500MW","year":2020},{"name":"Hikari Works power station","mw":106,"lat":33.9601,"lon":131.9298,"fuel":"coal","tier":"100-500MW","year":1989},{"name":"Shin-Minato power station","mw":105,"lat":35.6073,"lon":140.0763,"fuel":"gas","tier":"100-500MW","year":2005},{"name":"Shinkurobe Daisan hydroelectric plant","mw":105,"lat":36.6927,"lon":137.661,"fuel":"hydro","tier":"100-500MW","year":1963},{"name":"Tokyo Gas Bay power station","mw":103,"lat":35.4706,"lon":139.9766,"fuel":"gas","tier":"100-500MW","year":2003},{"name":"Ako Cement Plant power station","mw":103,"lat":34.753,"lon":134.3643,"fuel":"coal","tier":"100-500MW","year":1997},{"name":"Pacifico Energy Ako Mega-Solar Project","mw":102,"lat":34.8865,"lon":134.2856,"fuel":"solar","tier":"100-500MW","year":2021},{"name":"Softbank Yakumo Solar Park","mw":102,"lat":42.3012,"lon":140.2665,"fuel":"solar","tier":"100-500MW","year":2020},{"name":"Hiraoka hydroelectric plant","mw":101,"lat":35.283,"lon":137.8465,"fuel":"hydro","tier":"100-500MW","year":1952},{"name":"Nakasode Clean power station","mw":100,"lat":35.4542,"lon":139.9824,"fuel":"gas","tier":"100-500MW","year":2008},{"name":"Azuma Kofuji Solar Power Plant","mw":100,"lat":36.9502,"lon":140.8967,"fuel":"solar","tier":"100-500MW","year":null},{"name":"Kanoya Osaki Solar Hills Solar Power Plant","mw":100,"lat":31.4597,"lon":130.9378,"fuel":"solar","tier":"100-500MW","year":2021}]}