{"iso3":"JPN","count":160,"source":{"label":"WRI Global Power Plant Database v1.3","url":"https://datasets.wri.org/dataset/globalpowerplantdatabase","year":2021},"byFuel":{"nuclear":16,"gas":29,"oil":25,"coal":46,"hydro":41,"solar":2,"geothermal":1},"byTier":{"2GW+":31,"1-2GW":57,"500MW-1GW":25,"100-500MW":47},"plants":[{"name":"Kashiwazaki Kariwa","mw":8212,"lat":37.4259,"lon":138.5941,"fuel":"nuclear","tier":"2GW+","year":null},{"name":"Futtsu","mw":5040,"lat":35.3421,"lon":139.8319,"fuel":"gas","tier":"2GW+","year":null},{"name":"Higashi Niigata","mw":4810,"lat":37.9963,"lon":139.2373,"fuel":"gas","tier":"2GW+","year":null},{"name":"Kawagoe","mw":4802,"lat":35.0076,"lon":136.689,"fuel":"gas","tier":"2GW+","year":null},{"name":"Ohi","mw":4710,"lat":35.5424,"lon":135.6544,"fuel":"nuclear","tier":"2GW+","year":null},{"name":"Fukushima Daina","mw":4400,"lat":37.3164,"lon":141.0265,"fuel":"nuclear","tier":"2GW+","year":null},{"name":"Hirono","mw":4400,"lat":37.2351,"lon":141.0162,"fuel":"oil","tier":"2GW+","year":null},{"name":"Kashima","mw":4400,"lat":35.9409,"lon":140.6888,"fuel":"oil","tier":"2GW+","year":null},{"name":"Hekinan power station","mw":4100,"lat":34.8352,"lon":136.9609,"fuel":"coal","tier":"2GW+","year":1997},{"name":"Chita","mw":3966,"lat":34.9867,"lon":136.8436,"fuel":"oil","tier":"2GW+","year":null},{"name":"Hamaoka","mw":3617,"lat":34.6235,"lon":138.1421,"fuel":"nuclear","tier":"2GW+","year":null},{"name":"Anegasaki","mw":3600,"lat":35.4845,"lon":140.0172,"fuel":"oil","tier":"2GW+","year":null},{"name":"Sodegaura","mw":3600,"lat":35.4619,"lon":139.977,"fuel":"gas","tier":"2GW+","year":null},{"name":"Genkai","mw":3478,"lat":33.5152,"lon":129.836,"fuel":"nuclear","tier":"2GW+","year":null},{"name":"Takahama","mw":3392,"lat":35.5223,"lon":135.5036,"fuel":"nuclear","tier":"2GW+","year":null},{"name":"Yokohama","mw":3325,"lat":35.4768,"lon":139.679,"fuel":"oil","tier":"2GW+","year":null},{"name":"Shin Nagoya","mw":3058,"lat":35.0645,"lon":136.8767,"fuel":"gas","tier":"2GW+","year":null},{"name":"Chiba","mw":2880,"lat":35.5648,"lon":140.1053,"fuel":"gas","tier":"2GW+","year":null},{"name":"Shin Oita","mw":2295,"lat":33.2672,"lon":131.7076,"fuel":"gas","tier":"2GW+","year":null},{"name":"Yokosuka","mw":2274,"lat":35.2148,"lon":139.7173,"fuel":"oil","tier":"2GW+","year":null},{"name":"Onagawa","mw":2174,"lat":38.4,"lon":141.5,"fuel":"nuclear","tier":"2GW+","year":null},{"name":"J-POWER Tachibana-wan power station","mw":2100,"lat":33.8572,"lon":134.6514,"fuel":"coal","tier":"2GW+","year":2000},{"name":"Kainan","mw":2100,"lat":34.152,"lon":135.1876,"fuel":"oil","tier":"2GW+","year":null},{"name":"Ikata","mw":2022,"lat":33.4909,"lon":132.3088,"fuel":"nuclear","tier":"2GW+","year":null},{"name":"Haramachi power station","mw":2000,"lat":37.666,"lon":141.0165,"fuel":"coal","tier":"2GW+","year":1998},{"name":"Higashi Ogishima","mw":2000,"lat":35.4954,"lon":139.745,"fuel":"gas","tier":"2GW+","year":null},{"name":"Hitachinaka power station","mw":2000,"lat":36.4368,"lon":140.6138,"fuel":"coal","tier":"2GW+","year":2008},{"name":"Matsuura power station","mw":2000,"lat":33.3552,"lon":129.6925,"fuel":"coal","tier":"2GW+","year":1994},{"name":"Sakaiko","mw":2000,"lat":34.5704,"lon":135.4417,"fuel":"gas","tier":"2GW+","year":null},{"name":"Shinchi power station","mw":2000,"lat":37.8427,"lon":140.9456,"fuel":"coal","tier":"2GW+","year":1994},{"name":"Tomari","mw":2000,"lat":43.0367,"lon":140.5125,"fuel":"nuclear","tier":"2GW+","year":null},{"name":"Okutataragi","mw":1932,"lat":35.2406,"lon":134.8617,"fuel":"hydro","tier":"1-2GW","year":null},{"name":"Atsumi","mw":1900,"lat":34.6536,"lon":137.0665,"fuel":"oil","tier":"1-2GW","year":null},{"name":"Goi","mw":1886,"lat":35.547,"lon":140.0724,"fuel":"gas","tier":"1-2GW","year":null},{"name":"Gobo","mw":1800,"lat":33.86,"lon":135.1531,"fuel":"oil","tier":"1-2GW","year":null},{"name":"Maizuru power station","mw":1800,"lat":35.527,"lon":135.342,"fuel":"coal","tier":"1-2GW","year":2007},{"name":"Nanko","mw":1800,"lat":34.6177,"lon":135.4048,"fuel":"gas","tier":"1-2GW","year":null},{"name":"Shin Kokura","mw":1800,"lat":33.9078,"lon":130.8614,"fuel":"gas","tier":"1-2GW","year":null},{"name":"Sendai","mw":1780,"lat":31.8335,"lon":130.1887,"fuel":"nuclear","tier":"1-2GW","year":null},{"name":"Shika","mw":1746,"lat":37.0609,"lon":136.7265,"fuel":"nuclear","tier":"1-2GW","year":null},{"name":"Chita Daini","mw":1708,"lat":35.0067,"lon":136.8637,"fuel":"gas","tier":"1-2GW","year":null},{"name":"Nakoso power station","mw":1700,"lat":36.9128,"lon":140.8128,"fuel":"coal","tier":"1-2GW","year":1986},{"name":"Himeji Daini","mw":1650,"lat":34.7734,"lon":134.694,"fuel":"gas","tier":"1-2GW","year":null},{"name":"Tomato-atsuma power station","mw":1650,"lat":42.612,"lon":141.805,"fuel":"coal","tier":"1-2GW","year":1991},{"name":"Kawasaki","mw":1500,"lat":35.5123,"lon":139.7626,"fuel":"gas","tier":"1-2GW","year":null},{"name":"Okumino","mw":1500,"lat":35.7387,"lon":136.6709,"fuel":"hydro","tier":"1-2GW","year":null},{"name":"Sakaide","mw":1500,"lat":34.3419,"lon":133.8442,"fuel":"oil","tier":"1-2GW","year":null},{"name":"Toyama Shinko power station","mw":1500,"lat":36.7654,"lon":137.1286,"fuel":"coal","tier":"1-2GW","year":1972},{"name":"Himeji Daiichi","mw":1442,"lat":34.7734,"lon":134.694,"fuel":"gas","tier":"1-2GW","year":null},{"name":"Kobe power station","mw":1400,"lat":34.7032,"lon":135.24,"fuel":"coal","tier":"1-2GW","year":2003},{"name":"Reihoku power station","mw":1400,"lat":32.4855,"lon":130.0429,"fuel":"coal","tier":"1-2GW","year":1999},{"name":"Yanai","mw":1400,"lat":33.953,"lon":132.1248,"fuel":"gas","tier":"1-2GW","year":null},{"name":"Akita","mw":1300,"lat":39.7839,"lon":140.0487,"fuel":"oil","tier":"1-2GW","year":null},{"name":"Takehara power station","mw":1300,"lat":34.3373,"lon":132.9572,"fuel":"coal","tier":"1-2GW","year":1978},{"name":"Okawachi","mw":1280,"lat":35.1306,"lon":134.7108,"fuel":"hydro","tier":"1-2GW","year":null},{"name":"Shin Takasegawa","mw":1280,"lat":36.4739,"lon":137.6897,"fuel":"hydro","tier":"1-2GW","year":null},{"name":"Anan","mw":1245,"lat":33.8787,"lon":134.6534,"fuel":"oil","tier":"1-2GW","year":null},{"name":"Yokkaichi","mw":1245,"lat":34.9734,"lon":136.6462,"fuel":"gas","tier":"1-2GW","year":null},{"name":"Ohgishima","mw":1221,"lat":35.4954,"lon":139.745,"fuel":"gas","tier":"1-2GW","year":null},{"name":"Okuyoshino","mw":1206,"lat":34.1178,"lon":135.8211,"fuel":"hydro","tier":"1-2GW","year":null},{"name":"Ako","mw":1200,"lat":34.7413,"lon":134.3786,"fuel":"oil","tier":"1-2GW","year":null},{"name":"Isogo power station","mw":1200,"lat":35.4036,"lon":139.6419,"fuel":"coal","tier":"1-2GW","year":2006},{"name":"Matanogawa","mw":1200,"lat":35.2624,"lon":133.4918,"fuel":"hydro","tier":"1-2GW","year":null},{"name":"Nanao-Ohta Shinko power station","mw":1200,"lat":37.0664,"lon":137.004,"fuel":"coal","tier":"1-2GW","year":1997},{"name":"Noshiro power station","mw":1200,"lat":40.1912,"lon":139.9911,"fuel":"coal","tier":"1-2GW","year":1994},{"name":"Tamahara","mw":1200,"lat":36.8014,"lon":139.0406,"fuel":"hydro","tier":"1-2GW","year":null},{"name":"Tamashima","mw":1200,"lat":34.5144,"lon":133.6873,"fuel":"oil","tier":"1-2GW","year":null},{"name":"Tanagawa Daini","mw":1200,"lat":34.3216,"lon":135.1281,"fuel":"oil","tier":"1-2GW","year":null},{"name":"Tsuruga power station","mw":1200,"lat":35.6724,"lon":136.0815,"fuel":"coal","tier":"1-2GW","year":1996},{"name":"Nishi Nagoya","mw":1190,"lat":35.0326,"lon":136.8303,"fuel":"oil","tier":"1-2GW","year":null},{"name":"Tsuruga","mw":1160,"lat":35.7519,"lon":136.0189,"fuel":"nuclear","tier":"1-2GW","year":null},{"name":"Minami Yokohama","mw":1150,"lat":35.4042,"lon":139.637,"fuel":"gas","tier":"1-2GW","year":null},{"name":"Shinagawa","mw":1140,"lat":35.6199,"lon":139.7559,"fuel":"gas","tier":"1-2GW","year":null},{"name":"Aioi","mw":1125,"lat":34.7742,"lon":134.4568,"fuel":"oil","tier":"1-2GW","year":null},{"name":"Shin Toyone","mw":1125,"lat":35.1258,"lon":137.7606,"fuel":"hydro","tier":"1-2GW","year":null},{"name":"Taketoyo","mw":1125,"lat":34.8244,"lon":136.9238,"fuel":"oil","tier":"1-2GW","year":null},{"name":"Higashi-Dori","mw":1100,"lat":41.188,"lon":141.3903,"fuel":"nuclear","tier":"1-2GW","year":null},{"name":"Tokai Daini","mw":1100,"lat":36.4215,"lon":140.6028,"fuel":"nuclear","tier":"1-2GW","year":null},{"name":"Imaichi","mw":1050,"lat":36.8295,"lon":139.6632,"fuel":"hydro","tier":"1-2GW","year":null},{"name":"Ohi","mw":1050,"lat":35.6146,"lon":139.7567,"fuel":"oil","tier":"1-2GW","year":null},{"name":"Buzen","mw":1000,"lat":33.6261,"lon":131.1202,"fuel":"oil","tier":"1-2GW","year":null},{"name":"Kashima Kyodo","mw":1000,"lat":35.9414,"lon":140.6888,"fuel":"gas","tier":"1-2GW","year":1973},{"name":"Matsushima power station","mw":1000,"lat":32.9409,"lon":129.5969,"fuel":"coal","tier":"1-2GW","year":1981},{"name":"Misumi power station","mw":1000,"lat":34.7797,"lon":131.9215,"fuel":"coal","tier":"1-2GW","year":1998},{"name":"Okukiyotsu","mw":1000,"lat":36.8459,"lon":138.7662,"fuel":"hydro","tier":"1-2GW","year":null},{"name":"Sendai","mw":1000,"lat":31.8579,"lon":130.1997,"fuel":"oil","tier":"1-2GW","year":null},{"name":"Shimogo","mw":1000,"lat":37.3448,"lon":139.9087,"fuel":"hydro","tier":"1-2GW","year":null},{"name":"Shin Onoda power station","mw":1000,"lat":33.969,"lon":131.1634,"fuel":"coal","tier":"1-2GW","year":1986},{"name":"Omarugawa","mw":900,"lat":32.2478,"lon":131.3735,"fuel":"hydro","tier":"500MW-1GW","year":null},{"name":"Shiobara","mw":900,"lat":36.9937,"lon":139.8671,"fuel":"hydro","tier":"500MW-1GW","year":null},{"name":"Tobata","mw":892,"lat":33.925,"lon":130.8468,"fuel":"gas","tier":"500MW-1GW","year":null},{"name":"Owase Mita","mw":875,"lat":34.067,"lon":136.207,"fuel":"oil","tier":"500MW-1GW","year":null},{"name":"Kawasaki CCGT","mw":840,"lat":35.5121,"lon":139.7625,"fuel":"gas","tier":"500MW-1GW","year":2008},{"name":"Mihama","mw":826,"lat":35.7024,"lon":135.9634,"fuel":"nuclear","tier":"500MW-1GW","year":null},{"name":"Shimane","mw":820,"lat":35.5379,"lon":132.9991,"fuel":"nuclear","tier":"500MW-1GW","year":null},{"name":"Kazunogawa","mw":800,"lat":35.7175,"lon":138.8742,"fuel":"hydro","tier":"500MW-1GW","year":null},{"name":"Okuyahagi Daini","mw":780,"lat":35.195,"lon":137.4627,"fuel":"hydro","tier":"500MW-1GW","year":null},{"name":"Matsuura Kyushu power station","mw":700,"lat":33.3552,"lon":129.6925,"fuel":"coal","tier":"500MW-1GW","year":1989},{"name":"Niigata Minato","mw":700,"lat":37.9963,"lon":139.2373,"fuel":"gas","tier":"500MW-1GW","year":null},{"name":"Sakata Kyodo power station","mw":700,"lat":38.9686,"lon":139.8322,"fuel":"coal","tier":"500MW-1GW","year":1978},{"name":"Shikoku Tachibana-wan power station","mw":700,"lat":33.856,"lon":134.6513,"fuel":"coal","tier":"500MW-1GW","year":2000},{"name":"Numappara","mw":675,"lat":37.0938,"lon":139.9116,"fuel":"hydro","tier":"500MW-1GW","year":null},{"name":"Oita Thermal Power Plant","mw":657,"lat":33.2672,"lon":131.7076,"fuel":"gas","tier":"500MW-1GW","year":null},{"name":"Kashima Kita","mw":650,"lat":35.903,"lon":140.6878,"fuel":"oil","tier":"500MW-1GW","year":1981},{"name":"Azumi","mw":623,"lat":36.1325,"lon":137.7182,"fuel":"hydro","tier":"500MW-1GW","year":null},{"name":"Nabara","mw":620,"lat":34.5625,"lon":132.5167,"fuel":"hydro","tier":"500MW-1GW","year":null},{"name":"Hongawa","mw":615,"lat":33.7657,"lon":133.3411,"fuel":"hydro","tier":"500MW-1GW","year":null},{"name":"Tenzan","mw":600,"lat":33.328,"lon":130.1066,"fuel":"hydro","tier":"500MW-1GW","year":null},{"name":"Okutadami","mw":560,"lat":37.1529,"lon":139.2504,"fuel":"hydro","tier":"500MW-1GW","year":null},{"name":"Sumitomo Metals Kashima power station","mw":507,"lat":35.9475,"lon":140.69,"fuel":"coal","tier":"500MW-1GW","year":2007},{"name":"Mishima Mill (Taio)","mw":500,"lat":33.9898,"lon":133.5516,"fuel":"oil","tier":"500MW-1GW","year":null},{"name":"Ohira","mw":500,"lat":32.4206,"lon":130.7021,"fuel":"hydro","tier":"500MW-1GW","year":null},{"name":"Takasago power station","mw":500,"lat":34.7535,"lon":134.7663,"fuel":"coal","tier":"500MW-1GW","year":1968},{"name":"Nanyo Complex power station","mw":481,"lat":34.0543,"lon":131.7578,"fuel":"coal","tier":"100-500MW","year":1996},{"name":"Kannagawa","mw":470,"lat":36.0335,"lon":138.7054,"fuel":"hydro","tier":"100-500MW","year":null},{"name":"Kisenyama","mw":466,"lat":34.8806,"lon":135.8463,"fuel":"hydro","tier":"100-500MW","year":null},{"name":"Daini Numazawa","mw":460,"lat":37.453,"lon":139.6019,"fuel":"hydro","tier":"100-500MW","year":null},{"name":"Kin power station","mw":440,"lat":26.446,"lon":127.9214,"fuel":"coal","tier":"100-500MW","year":2002},{"name":"Saijo power station","mw":406,"lat":33.9327,"lon":133.1677,"fuel":"coal","tier":"100-500MW","year":1968},{"name":"Chiba Kawatetsu","mw":400,"lat":35.5713,"lon":140.0879,"fuel":"gas","tier":"100-500MW","year":2002},{"name":"Tagokura","mw":395,"lat":37.3113,"lon":139.2837,"fuel":"hydro","tier":"100-500MW","year":null},{"name":"Ikehara","mw":350,"lat":34.0412,"lon":135.9753,"fuel":"hydro","tier":"100-500MW","year":null},{"name":"Naie power station","mw":350,"lat":43.422,"lon":141.8439,"fuel":"coal","tier":"100-500MW","year":1969},{"name":"Sakuma","mw":350,"lat":35.0908,"lon":137.8047,"fuel":"hydro","tier":"100-500MW","year":null},{"name":"Oita IPP power station","mw":330,"lat":33.2687,"lon":131.6494,"fuel":"coal","tier":"100-500MW","year":2002},{"name":"Gushikawa power station","mw":312,"lat":26.3799,"lon":127.8757,"fuel":"coal","tier":"100-500MW","year":1994},{"name":"Ishikawa power station","mw":312,"lat":26.4307,"lon":127.8419,"fuel":"coal","tier":"100-500MW","year":1986},{"name":"Shin Nariwagawa","mw":303,"lat":34.821,"lon":133.4028,"fuel":"hydro","tier":"100-500MW","year":null},{"name":"Kimitsu","mw":300,"lat":35.3619,"lon":139.8651,"fuel":"gas","tier":"100-500MW","year":null},{"name":"Niihama Nishi power station","mw":300,"lat":33.9545,"lon":133.2491,"fuel":"coal","tier":"100-500MW","year":1984},{"name":"Hirohata Works power station","mw":290,"lat":34.7854,"lon":134.6214,"fuel":"coal","tier":"100-500MW","year":1998},{"name":"Mazegawa Daiichi","mw":288,"lat":35.7329,"lon":137.1396,"fuel":"hydro","tier":"100-500MW","year":null},{"name":"Nagoya power station","mw":259,"lat":35.0659,"lon":136.8775,"fuel":"coal","tier":"100-500MW","year":2007},{"name":"Nyugawa power station","mw":250,"lat":33.9346,"lon":133.1149,"fuel":"coal","tier":"100-500MW","year":2003},{"name":"Sunagawa Daini power station","mw":250,"lat":43.4639,"lon":141.891,"fuel":"coal","tier":"100-500MW","year":1980},{"name":"Tedorigawa Daiichi","mw":250,"lat":36.2683,"lon":136.6483,"fuel":"hydro","tier":"100-500MW","year":null},{"name":"Midono","mw":245,"lat":36.1538,"lon":137.7463,"fuel":"hydro","tier":"100-500MW","year":null},{"name":"Yagisawa","mw":240,"lat":36.9114,"lon":139.0564,"fuel":"hydro","tier":"100-500MW","year":null},{"name":"Setouchi","mw":230,"lat":34.643,"lon":134.159,"fuel":"solar","tier":"100-500MW","year":null},{"name":"Nagano","mw":220,"lat":35.8894,"lon":136.6881,"fuel":"hydro","tier":"100-500MW","year":null},{"name":"Miboro","mw":215,"lat":36.1379,"lon":136.9104,"fuel":"hydro","tier":"100-500MW","year":null},{"name":"Niikappu","mw":200,"lat":42.6066,"lon":142.5569,"fuel":"hydro","tier":"100-500MW","year":null},{"name":"Takami","mw":200,"lat":42.4481,"lon":142.6236,"fuel":"hydro","tier":"100-500MW","year":null},{"name":"NSC Muroran Works power station","mw":195,"lat":42.3507,"lon":140.993,"fuel":"coal","tier":"100-500MW","year":1999},{"name":"Otori","mw":182,"lat":37.2147,"lon":139.2139,"fuel":"hydro","tier":"100-500MW","year":null},{"name":"Hitotsuse","mw":180,"lat":32.195,"lon":131.323,"fuel":"hydro","tier":"100-500MW","year":null},{"name":"Shinanogawa","mw":177,"lat":37.055,"lon":138.6828,"fuel":"hydro","tier":"100-500MW","year":null},{"name":"Miike power station","mw":175,"lat":33.0086,"lon":130.4206,"fuel":"coal","tier":"100-500MW","year":1975},{"name":"Osaki CoolGen Project","mw":166,"lat":34.2591,"lon":132.8723,"fuel":"coal","tier":"100-500MW","year":2017},{"name":"Itoigawa power station","mw":149,"lat":37.0151,"lon":137.7913,"fuel":"coal","tier":"100-500MW","year":2005},{"name":"Kamaishi Works power station","mw":149,"lat":39.2688,"lon":141.8766,"fuel":"coal","tier":"100-500MW","year":2000},{"name":"Yawata Works power station","mw":149,"lat":33.8982,"lon":130.8891,"fuel":"coal","tier":"100-500MW","year":2000},{"name":"Wakayama","mw":147,"lat":34.2397,"lon":135.128,"fuel":"gas","tier":"100-500MW","year":2011},{"name":"Hachinohe Taiheiyo","mw":125,"lat":40.5353,"lon":141.5019,"fuel":"oil","tier":"100-500MW","year":null},{"name":"Jozankei","mw":120,"lat":42.9871,"lon":141.1562,"fuel":"hydro","tier":"100-500MW","year":1989},{"name":"Kansai Sendai power station","mw":112,"lat":38.2681,"lon":141.0092,"fuel":"coal","tier":"100-500MW","year":2017},{"name":"Mizushima Energy Center","mw":112,"lat":34.5099,"lon":133.7458,"fuel":"coal","tier":"100-500MW","year":2017},{"name":"Tomatoh Abira Solar Power Plant","mw":111,"lat":42.7125,"lon":141.7923,"fuel":"solar","tier":"100-500MW","year":null},{"name":"Hatchobaru Otake","mw":110,"lat":33.1053,"lon":131.1874,"fuel":"geothermal","tier":"100-500MW","year":null},{"name":"Nagoya Power Plant 2","mw":110,"lat":35.0659,"lon":136.8778,"fuel":"coal","tier":"100-500MW","year":2017}]}