{"iso3":"KAZ","count":26,"source":{"label":"WRI Global Power Plant Database v1.3","url":"https://datasets.wri.org/dataset/globalpowerplantdatabase","year":2021},"byFuel":{"coal":19,"hydro":4,"gas":2,"solar":1},"byTier":{"2GW+":2,"1-2GW":3,"500MW-1GW":6,"100-500MW":15},"plants":[{"name":"Ekibastuz-1 power station","mw":4000,"lat":51.888,"lon":75.377,"fuel":"coal","tier":"2GW+","year":1982},{"name":"Aksu power station","mw":2450,"lat":52.12,"lon":76.875,"fuel":"coal","tier":"2GW+","year":1972},{"name":"MAEK-Kazatoprom TPP-2","mw":1255,"lat":52.367,"lon":76.9338,"fuel":"coal","tier":"1-2GW","year":null},{"name":"OJSC Zhambyl GRES","mw":1230,"lat":42.9,"lon":71.3667,"fuel":"coal","tier":"1-2GW","year":null},{"name":"Ekibastuz-2 power station","mw":1000,"lat":52.023,"lon":75.475,"fuel":"coal","tier":"1-2GW","year":1992},{"name":"Pavlodar TPP-1","mw":855,"lat":52.367,"lon":76.9338,"fuel":"coal","tier":"500MW-1GW","year":1959},{"name":"Shulbinskaya HPP","mw":720,"lat":50.399,"lon":81.069,"fuel":"hydro","tier":"500MW-1GW","year":1987},{"name":"JSC Bukhtarminskaya","mw":675,"lat":49.6588,"lon":83.347,"fuel":"hydro","tier":"500MW-1GW","year":null},{"name":"Karaganda GRES-2","mw":608,"lat":52.023,"lon":75.475,"fuel":"coal","tier":"500MW-1GW","year":1996},{"name":"Karaganda TPS-3 power station","mw":590,"lat":49.9167,"lon":73.2372,"fuel":"coal","tier":"500MW-1GW","year":1988},{"name":"Almaty TPP-2","mw":510,"lat":43.2935,"lon":76.7992,"fuel":"coal","tier":"500MW-1GW","year":null},{"name":"Karaganda TETS 1","mw":475,"lat":49.9161,"lon":73.2365,"fuel":"coal","tier":"100-500MW","year":2002},{"name":"Pavlodar-3 power station","mw":440,"lat":52.3666,"lon":76.9345,"fuel":"coal","tier":"100-500MW","year":1975},{"name":"Petropavlovsk-2 power station","mw":401,"lat":54.8979,"lon":69.1874,"fuel":"coal","tier":"100-500MW","year":1965},{"name":"Karaganda TPS-2 power station","mw":400,"lat":50.0467,"lon":73.0532,"fuel":"coal","tier":"100-500MW","year":1976},{"name":"Kapchagan","mw":364,"lat":43.9226,"lon":77.0978,"fuel":"hydro","tier":"100-500MW","year":null},{"name":"Astana-2 power station","mw":360,"lat":51.1892,"lon":71.5099,"fuel":"coal","tier":"100-500MW","year":1989},{"name":"Ust-Kamenogorsk HPP","mw":331,"lat":49.9012,"lon":82.7183,"fuel":"hydro","tier":"100-500MW","year":1952},{"name":"Ust-Kamenogorsk TETS power station","mw":308,"lat":49.9823,"lon":82.6142,"fuel":"coal","tier":"100-500MW","year":1978},{"name":"Atyrau","mw":300,"lat":47.0818,"lon":51.9422,"fuel":"gas","tier":"100-500MW","year":1963},{"name":"Almaty-3 power station","mw":290,"lat":43.421,"lon":77.0073,"fuel":"coal","tier":"100-500MW","year":1982},{"name":"Zhezkazgan power station","mw":227,"lat":47.7853,"lon":67.7444,"fuel":"coal","tier":"100-500MW","year":1975},{"name":"Almaty CHP-1","mw":145,"lat":43.2809,"lon":76.931,"fuel":"coal","tier":"100-500MW","year":null},{"name":"Kumkol","mw":100,"lat":46.4259,"lon":68.7007,"fuel":"gas","tier":"100-500MW","year":2004},{"name":"Pavlodar-2 power station","mw":100,"lat":52.3221,"lon":76.9664,"fuel":"coal","tier":"100-500MW","year":1963},{"name":"Saran","mw":100,"lat":49.81,"lon":72.872,"fuel":"solar","tier":"100-500MW","year":null}]}