{"iso3":"LBY","count":10,"byFuel":{"gas":9,"oil":1},"byTier":{"1-2GW":3,"500MW-1GW":2,"100-500MW":5},"plants":[{"name":"Az Zawiyah","mw":1440,"lat":32.7882,"lon":12.674,"fuel":"gas","tier":"1-2GW","year":2003},{"name":"North Benghazi Station 1","mw":1040,"lat":32.2027,"lon":20.133,"fuel":"gas","tier":"1-2GW","year":1979},{"name":"Al Khums","mw":1000,"lat":32.6204,"lon":14.3312,"fuel":"gas","tier":"1-2GW","year":1995},{"name":"Western Mountain Station- Ruwais","mw":624,"lat":31.9559,"lon":11.1447,"fuel":"gas","tier":"500MW-1GW","year":2005},{"name":"Misrata","mw":500,"lat":32.3326,"lon":15.2319,"fuel":"gas","tier":"500MW-1GW","year":2010},{"name":"Double Corner Power Station 1","mw":480,"lat":32.7899,"lon":12.6703,"fuel":"gas","tier":"100-500MW","year":2000},{"name":"Gulf of Sirte","mw":350,"lat":31.2174,"lon":16.347,"fuel":"gas","tier":"100-500MW","year":2016},{"name":"Zuenita","mw":335,"lat":30.9564,"lon":20.1164,"fuel":"gas","tier":"100-500MW","year":1994},{"name":"West Tripoli","mw":185,"lat":32.8251,"lon":12.9739,"fuel":"oil","tier":"100-500MW","year":1976},{"name":"South Tripoli","mw":147,"lat":32.776,"lon":13.0983,"fuel":"gas","tier":"100-500MW","year":1994}]}