{"iso3":"MAR","count":23,"byFuel":{"coal":3,"gas":3,"hydro":5,"wind":5,"oil":4,"solar":3},"byTier":{"2GW+":1,"500MW-1GW":2,"100-500MW":20},"plants":[{"name":"Centrale Thermique de Jorf Lasfar (JLEC)","mw":2020,"lat":33.1041,"lon":-8.6378,"fuel":"coal","tier":"2GW+","year":1994},{"name":"Al Wahda Thermal Power station","mw":800,"lat":34.8,"lon":-5.6,"fuel":"gas","tier":"500MW-1GW","year":2010},{"name":"Jerada power station","mw":515,"lat":34.3098,"lon":-2.1902,"fuel":"coal","tier":"500MW-1GW","year":2002},{"name":"Ain Beni Mathar Centrale Thermosolaire (CCGT)","mw":472,"lat":34.0705,"lon":-2.1049,"fuel":"gas","tier":"100-500MW","year":2009},{"name":"STEP UR1 *","mw":464,"lat":32.2065,"lon":-6.531,"fuel":"hydro","tier":"100-500MW","year":2005},{"name":"Centrale a cycle combine de Tahaddart","mw":394,"lat":35.589,"lon":-5.9868,"fuel":"gas","tier":"100-500MW","year":2005},{"name":"Parc Eolien Tarfaya","mw":301,"lat":35.611,"lon":-5.432,"fuel":"wind","tier":"100-500MW","year":2014},{"name":"Central Termique de Kenitra","mw":300,"lat":34.286,"lon":-6.5618,"fuel":"oil","tier":"100-500MW","year":1979},{"name":"Mohammedia power station","mw":300,"lat":33.682,"lon":-7.435,"fuel":"coal","tier":"100-500MW","year":1986},{"name":"Al wahda","mw":240,"lat":34.5983,"lon":-5.199,"fuel":"hydro","tier":"100-500MW","year":1998},{"name":"Allal Al Fassi","mw":240,"lat":33.9307,"lon":-4.6781,"fuel":"hydro","tier":"100-500MW","year":1994},{"name":"Parc Eolien Akhfenir","mw":202,"lat":27.9538,"lon":-11.9975,"fuel":"wind","tier":"100-500MW","year":2016},{"name":"Centrale Solaire Noor Ouarzazate 2","mw":200,"lat":31.0092,"lon":-6.8622,"fuel":"solar","tier":"100-500MW","year":2018},{"name":"Centrale Turbine a' Gaz de Tit-Me (Casablanca)","mw":198,"lat":33.541,"lon":-7.502,"fuel":"oil","tier":"100-500MW","year":1994},{"name":"Centrale Solaire Noor Ouarzazate 1","mw":160,"lat":31.0404,"lon":-6.8449,"fuel":"solar","tier":"100-500MW","year":2016},{"name":"Centrale Solaire Noor Ouarzazate 3","mw":150,"lat":31.0092,"lon":-6.8622,"fuel":"solar","tier":"100-500MW","year":2017},{"name":"Midelt","mw":150,"lat":32.6816,"lon":-4.7922,"fuel":"wind","tier":"100-500MW","year":2017},{"name":"Parc Eolien de Tanger","mw":140,"lat":35.6467,"lon":-5.6078,"fuel":"wind","tier":"100-500MW","year":2009},{"name":"Centrale Turbine a` Gaz de Tetouan","mw":139,"lat":35.5699,"lon":-5.4633,"fuel":"oil","tier":"100-500MW","year":1975},{"name":"BINE EL OUIDANE","mw":135,"lat":32.107,"lon":-6.464,"fuel":"hydro","tier":"100-500MW","year":1955},{"name":"ALMASSIRA","mw":128,"lat":32.4756,"lon":-7.6374,"fuel":"hydro","tier":"100-500MW","year":1980},{"name":"Parc Eolien Khalladi","mw":120,"lat":35.7545,"lon":-5.571,"fuel":"wind","tier":"100-500MW","year":2016},{"name":"Centrale Diesel de Tantan","mw":117,"lat":28.469,"lon":-11.339,"fuel":"oil","tier":"100-500MW","year":2009}]}