{"iso3":"NOR","count":94,"source":{"label":"WRI Global Power Plant Database v1.3","url":"https://datasets.wri.org/dataset/globalpowerplantdatabase","year":2021},"byFuel":{"hydro":89,"gas":4,"wind":1},"byTier":{"1-2GW":3,"500MW-1GW":6,"100-500MW":85},"plants":[{"name":"Kvilldal","mw":1444,"lat":59.5118,"lon":6.5846,"fuel":"hydro","tier":"1-2GW","year":null},{"name":"Aurland5","mw":1398,"lat":60.8629,"lon":7.3017,"fuel":"hydro","tier":"1-2GW","year":null},{"name":"Tonstad","mw":1130,"lat":58.6648,"lon":6.7084,"fuel":"hydro","tier":"1-2GW","year":null},{"name":"Svartisen","mw":780,"lat":66.7282,"lon":13.9135,"fuel":"hydro","tier":"500MW-1GW","year":null},{"name":"Sy-Sima","mw":720,"lat":60.4986,"lon":7.1443,"fuel":"hydro","tier":"500MW-1GW","year":null},{"name":"Saurdal","mw":674,"lat":59.4828,"lon":6.6726,"fuel":"hydro","tier":"500MW-1GW","year":null},{"name":"Lang Sima","mw":580,"lat":60.4986,"lon":7.1447,"fuel":"hydro","tier":"500MW-1GW","year":null},{"name":"Rana","mw":570,"lat":66.3034,"lon":14.2624,"fuel":"hydro","tier":"500MW-1GW","year":null},{"name":"Naturkraft CCPP","mw":520,"lat":59.2751,"lon":5.5129,"fuel":"gas","tier":"500MW-1GW","year":null},{"name":"Tokke","mw":480,"lat":59.4479,"lon":8.0354,"fuel":"hydro","tier":"100-500MW","year":null},{"name":"Holen","mw":460,"lat":59.346,"lon":7.2493,"fuel":"hydro","tier":"100-500MW","year":null},{"name":"Evanger","mw":446,"lat":60.6566,"lon":6.1121,"fuel":"hydro","tier":"100-500MW","year":null},{"name":"Brokke","mw":443,"lat":59.1233,"lon":7.5106,"fuel":"hydro","tier":"100-500MW","year":null},{"name":"Tyin","mw":440,"lat":61.3103,"lon":7.8316,"fuel":"hydro","tier":"100-500MW","year":null},{"name":"EVM","mw":382,"lat":60.8085,"lon":5.0374,"fuel":"gas","tier":"100-500MW","year":null},{"name":"Nedre Rossaga","mw":378,"lat":66.052,"lon":13.782,"fuel":"hydro","tier":"100-500MW","year":null},{"name":"Vinje","mw":375,"lat":59.6246,"lon":7.8508,"fuel":"hydro","tier":"100-500MW","year":null},{"name":"Skjomen","mw":360,"lat":68.2038,"lon":17.3607,"fuel":"hydro","tier":"100-500MW","year":null},{"name":"Aura","mw":352,"lat":62.6646,"lon":8.5244,"fuel":"hydro","tier":"100-500MW","year":null},{"name":"Kobbelv","mw":352,"lat":67.6232,"lon":15.9902,"fuel":"hydro","tier":"100-500MW","year":null},{"name":"Suldal 2","mw":350,"lat":59.6496,"lon":6.8166,"fuel":"hydro","tier":"100-500MW","year":null},{"name":"Hol 3","mw":348,"lat":60.5744,"lon":8.411,"fuel":"hydro","tier":"100-500MW","year":null},{"name":"Nedre Vinstra","mw":343,"lat":61.5761,"lon":9.7978,"fuel":"hydro","tier":"100-500MW","year":null},{"name":"Jostedal","mw":320,"lat":61.5266,"lon":7.2879,"fuel":"hydro","tier":"100-500MW","year":null},{"name":"Sonna","mw":310,"lat":59.6471,"lon":6.3538,"fuel":"hydro","tier":"100-500MW","year":null},{"name":"Mauranger","mw":307,"lat":60.1318,"lon":6.3305,"fuel":"hydro","tier":"100-500MW","year":null},{"name":"Nore 1","mw":302,"lat":60.2385,"lon":9.0008,"fuel":"hydro","tier":"100-500MW","year":null},{"name":"Nes OEK","mw":299,"lat":60.6044,"lon":9.0697,"fuel":"hydro","tier":"100-500MW","year":null},{"name":"Matre","mw":275,"lat":60.8744,"lon":5.5905,"fuel":"hydro","tier":"100-500MW","year":null},{"name":"Fortun","mw":273,"lat":61.5049,"lon":7.7003,"fuel":"hydro","tier":"100-500MW","year":null},{"name":"Lysebotn","mw":264,"lat":59.0538,"lon":6.6258,"fuel":"hydro","tier":"100-500MW","year":null},{"name":"Nea","mw":260,"lat":63.0293,"lon":11.687,"fuel":"hydro","tier":"100-500MW","year":null},{"name":"Tysso 2","mw":258,"lat":60.1292,"lon":6.6412,"fuel":"hydro","tier":"100-500MW","year":null},{"name":"RKA Nyhamna","mw":253,"lat":62.8489,"lon":6.9433,"fuel":"gas","tier":"100-500MW","year":null},{"name":"Vamma","mw":252,"lat":59.5423,"lon":11.1704,"fuel":"hydro","tier":"100-500MW","year":null},{"name":"Melkoya","mw":250,"lat":70.684,"lon":23.5929,"fuel":"gas","tier":"100-500MW","year":null},{"name":"Solhom","mw":250,"lat":58.7683,"lon":7.0202,"fuel":"hydro","tier":"100-500MW","year":null},{"name":"Borgund","mw":240,"lat":61.0586,"lon":7.8191,"fuel":"hydro","tier":"100-500MW","year":null},{"name":"Oksla","mw":240,"lat":60.1201,"lon":6.5566,"fuel":"hydro","tier":"100-500MW","year":null},{"name":"Solberg2","mw":240,"lat":59.6365,"lon":11.1542,"fuel":"hydro","tier":"100-500MW","year":null},{"name":"Siso","mw":229,"lat":67.325,"lon":15.7073,"fuel":"hydro","tier":"100-500MW","year":null},{"name":"Vemork","mw":224,"lat":59.8468,"lon":8.4274,"fuel":"hydro","tier":"100-500MW","year":null},{"name":"Saheim","mw":206,"lat":59.877,"lon":8.5929,"fuel":"hydro","tier":"100-500MW","year":null},{"name":"Usta","mw":206,"lat":60.5743,"lon":8.4096,"fuel":"hydro","tier":"100-500MW","year":null},{"name":"Tunnsjodal","mw":203,"lat":64.7041,"lon":12.8358,"fuel":"hydro","tier":"100-500MW","year":null},{"name":"Duge","mw":200,"lat":58.6659,"lon":6.5031,"fuel":"hydro","tier":"100-500MW","year":null},{"name":"Steinsland","mw":198,"lat":60.9261,"lon":5.9781,"fuel":"hydro","tier":"100-500MW","year":null},{"name":"Roldal","mw":192,"lat":59.8215,"lon":6.8176,"fuel":"hydro","tier":"100-500MW","year":null},{"name":"Hylen","mw":190,"lat":58.4653,"lon":6.544,"fuel":"hydro","tier":"100-500MW","year":null},{"name":"Hemsil 2","mw":188,"lat":60.7053,"lon":8.9718,"fuel":"hydro","tier":"100-500MW","year":null},{"name":"Ovre Rossaga","mw":188,"lat":65.8873,"lon":13.8012,"fuel":"hydro","tier":"100-500MW","year":null},{"name":"Ana-Sira","mw":183,"lat":58.295,"lon":6.4531,"fuel":"hydro","tier":"100-500MW","year":null},{"name":"Alta krv","mw":180,"lat":69.7049,"lon":23.8185,"fuel":"hydro","tier":"100-500MW","year":null},{"name":"Dale","mw":171,"lat":61.3375,"lon":5.412,"fuel":"hydro","tier":"100-500MW","year":null},{"name":"Straumsmo","mw":170,"lat":68.7408,"lon":18.643,"fuel":"hydro","tier":"100-500MW","year":null},{"name":"Torpa","mw":170,"lat":60.9961,"lon":10.0577,"fuel":"hydro","tier":"100-500MW","year":null},{"name":"Trolheim","mw":169,"lat":63.0024,"lon":9.0191,"fuel":"hydro","tier":"100-500MW","year":null},{"name":"Kolsvik","mw":163,"lat":65.204,"lon":12.7936,"fuel":"hydro","tier":"100-500MW","year":null},{"name":"Driva","mw":160,"lat":62.623,"lon":8.8895,"fuel":"hydro","tier":"100-500MW","year":null},{"name":"Grytten Kraftver","mw":160,"lat":62.5024,"lon":7.7718,"fuel":"hydro","tier":"100-500MW","year":null},{"name":"Smola","mw":160,"lat":63.4106,"lon":7.9099,"fuel":"wind","tier":"100-500MW","year":null},{"name":"Askara","mw":157,"lat":61.8117,"lon":5.6615,"fuel":"hydro","tier":"100-500MW","year":null},{"name":"Hjartdola","mw":150,"lat":59.6042,"lon":8.712,"fuel":"hydro","tier":"100-500MW","year":null},{"name":"Ovre Vinstra","mw":150,"lat":61.4833,"lon":9.3125,"fuel":"hydro","tier":"100-500MW","year":null},{"name":"Uvdal 1","mw":150,"lat":60.265,"lon":8.9308,"fuel":"hydro","tier":"100-500MW","year":null},{"name":"Bratsberg","mw":140,"lat":63.3729,"lon":10.4098,"fuel":"hydro","tier":"100-500MW","year":null},{"name":"Lomi","mw":140,"lat":67.124,"lon":16.0969,"fuel":"hydro","tier":"100-500MW","year":null},{"name":"Songa","mw":140,"lat":59.7776,"lon":7.7258,"fuel":"hydro","tier":"100-500MW","year":null},{"name":"Svelgen","mw":140,"lat":61.7688,"lon":5.3076,"fuel":"hydro","tier":"100-500MW","year":null},{"name":"Tjorhom","mw":140,"lat":58.8794,"lon":6.8212,"fuel":"hydro","tier":"100-500MW","year":null},{"name":"Finndola","mw":130,"lat":59.178,"lon":8.0128,"fuel":"hydro","tier":"100-500MW","year":null},{"name":"Tjodan","mw":130,"lat":59.0521,"lon":6.6524,"fuel":"hydro","tier":"100-500MW","year":null},{"name":"Sundsfjord","mw":128,"lat":66.9709,"lon":14.1516,"fuel":"hydro","tier":"100-500MW","year":null},{"name":"Steinsfoss","mw":125,"lat":58.3002,"lon":7.9675,"fuel":"hydro","tier":"100-500MW","year":null},{"name":"Hunderfossen","mw":124,"lat":61.2171,"lon":10.4394,"fuel":"hydro","tier":"100-500MW","year":null},{"name":"Skjerka","mw":120,"lat":58.554,"lon":7.3762,"fuel":"hydro","tier":"100-500MW","year":null},{"name":"Naddvik","mw":118,"lat":61.1822,"lon":7.6355,"fuel":"hydro","tier":"100-500MW","year":null},{"name":"Sundsbarm","mw":118,"lat":59.4976,"lon":8.6343,"fuel":"hydro","tier":"100-500MW","year":null},{"name":"Bjolvo","mw":117,"lat":60.4321,"lon":6.4184,"fuel":"hydro","tier":"100-500MW","year":null},{"name":"Langvatn","mw":115,"lat":66.337,"lon":14.1667,"fuel":"hydro","tier":"100-500MW","year":null},{"name":"Rendal 2","mw":114,"lat":61.8123,"lon":11.1214,"fuel":"hydro","tier":"100-500MW","year":null},{"name":"Rendalen","mw":113,"lat":61.8123,"lon":11.1214,"fuel":"hydro","tier":"100-500MW","year":null},{"name":"Svelgfoss","mw":111,"lat":59.5813,"lon":9.2572,"fuel":"hydro","tier":"100-500MW","year":null},{"name":"Oyberget","mw":109,"lat":61.9342,"lon":8.0307,"fuel":"hydro","tier":"100-500MW","year":null},{"name":"Aroy","mw":108,"lat":61.2768,"lon":7.1547,"fuel":"hydro","tier":"100-500MW","year":null},{"name":"Stakaldefossen","mw":107,"lat":61.4459,"lon":6.0097,"fuel":"hydro","tier":"100-500MW","year":null},{"name":"Innset","mw":105,"lat":68.6576,"lon":18.82,"fuel":"hydro","tier":"100-500MW","year":null},{"name":"Abjora","mw":103,"lat":60.8648,"lon":9.279,"fuel":"hydro","tier":"100-500MW","year":null},{"name":"Boylefoss","mw":102,"lat":58.5962,"lon":8.7164,"fuel":"hydro","tier":"100-500MW","year":null},{"name":"Skollenborg","mw":102,"lat":59.6189,"lon":9.6677,"fuel":"hydro","tier":"100-500MW","year":null},{"name":"Kaggefoss","mw":101,"lat":59.9314,"lon":9.9476,"fuel":"hydro","tier":"100-500MW","year":null},{"name":"Eiriksdal","mw":100,"lat":61.2359,"lon":6.1984,"fuel":"hydro","tier":"100-500MW","year":null},{"name":"Harpefossen","mw":100,"lat":61.5815,"lon":9.8421,"fuel":"hydro","tier":"100-500MW","year":null},{"name":"Refsdal","mw":100,"lat":61.0213,"lon":6.5673,"fuel":"hydro","tier":"100-500MW","year":null}]}