{"iso3":"NZL","count":18,"byFuel":{"hydro":9,"coal":1,"gas":1,"oil":1,"wind":1,"geothermal":5},"byTier":{"500MW-1GW":4,"100-500MW":14},"plants":[{"name":"Manapouri","mw":800,"lat":-45.5214,"lon":167.2778,"fuel":"hydro","tier":"500MW-1GW","year":null},{"name":"Ohau A","mw":688,"lat":-44.3416,"lon":170.1813,"fuel":"hydro","tier":"500MW-1GW","year":null},{"name":"Benmore","mw":540,"lat":-44.564,"lon":170.1972,"fuel":"hydro","tier":"500MW-1GW","year":null},{"name":"Huntly (steam)","mw":500,"lat":-37.5444,"lon":175.15,"fuel":"coal","tier":"500MW-1GW","year":null},{"name":"Clyde","mw":432,"lat":-45.1793,"lon":169.307,"fuel":"hydro","tier":"100-500MW","year":1992},{"name":"Huntly (CC)","mw":403,"lat":-37.5444,"lon":175.15,"fuel":"gas","tier":"100-500MW","year":2007},{"name":"Maraetai","mw":352,"lat":-38.3521,"lon":175.7465,"fuel":"hydro","tier":"100-500MW","year":null},{"name":"Aviemore","mw":220,"lat":-44.656,"lon":170.3551,"fuel":"hydro","tier":"100-500MW","year":null},{"name":"Arapuni","mw":192,"lat":-38.0714,"lon":175.6433,"fuel":"hydro","tier":"100-500MW","year":1929},{"name":"Tekapo","mw":179,"lat":-44.0138,"lon":170.4604,"fuel":"hydro","tier":"100-500MW","year":null},{"name":"Whirinaki","mw":155,"lat":-39.3829,"lon":176.8875,"fuel":"oil","tier":"100-500MW","year":2011},{"name":"West Wind","mw":143,"lat":-41.2335,"lon":174.6971,"fuel":"wind","tier":"100-500MW","year":2009},{"name":"Nga Awa Purua","mw":138,"lat":-38.6143,"lon":176.1825,"fuel":"geothermal","tier":"100-500MW","year":2010},{"name":"Wairakei","mw":132,"lat":-38.6266,"lon":176.1055,"fuel":"geothermal","tier":"100-500MW","year":null},{"name":"Ohaaki","mw":122,"lat":-38.5279,"lon":176.2937,"fuel":"geothermal","tier":"100-500MW","year":1984},{"name":"mokai","mw":112,"lat":-38.5312,"lon":175.9268,"fuel":"geothermal","tier":"100-500MW","year":2000},{"name":"Ohakuri","mw":106,"lat":-38.408,"lon":176.0886,"fuel":"hydro","tier":"100-500MW","year":1961},{"name":"Kawerau","mw":100,"lat":-38.0631,"lon":176.7272,"fuel":"geothermal","tier":"100-500MW","year":2008}]}