{"iso3":"OMN","count":11,"byFuel":{"solar":2,"gas":9},"byTier":{"1-2GW":2,"500MW-1GW":3,"100-500MW":6},"plants":[{"name":"Miraah CSP","mw":1021,"lat":18.35,"lon":55.71,"fuel":"solar","tier":"1-2GW","year":null},{"name":"Sohar Alumnium","mw":1000,"lat":24.4722,"lon":56.6331,"fuel":"gas","tier":"1-2GW","year":2008},{"name":"SMN Barka","mw":716,"lat":23.707,"lon":57.9816,"fuel":"gas","tier":"500MW-1GW","year":2008},{"name":"Rusail","mw":684,"lat":23.5542,"lon":58.1993,"fuel":"gas","tier":"500MW-1GW","year":1984},{"name":"Sohar","mw":632,"lat":24.4885,"lon":56.6135,"fuel":"gas","tier":"500MW-1GW","year":2006},{"name":"AL GHUBRAH","mw":480,"lat":23.6031,"lon":58.4164,"fuel":"gas","tier":"100-500MW","year":1976},{"name":"ACWA Barka","mw":471,"lat":23.7073,"lon":57.9845,"fuel":"gas","tier":"100-500MW","year":2003},{"name":"Wadi Jizzi","mw":325,"lat":24.308,"lon":56.4235,"fuel":"gas","tier":"100-500MW","year":1985},{"name":"Al Kamil","mw":285,"lat":22.3903,"lon":59.0695,"fuel":"gas","tier":"100-500MW","year":2003},{"name":"Manah","mw":279,"lat":22.7067,"lon":57.5779,"fuel":"gas","tier":"100-500MW","year":1997},{"name":"Miraah CSP1","mw":113,"lat":18.35,"lon":55.71,"fuel":"solar","tier":"100-500MW","year":null}]}