{"iso3":"PER","count":22,"source":{"label":"WRI Global Power Plant Database v1.3","url":"https://datasets.wri.org/dataset/globalpowerplantdatabase","year":2021},"byFuel":{"gas":8,"hydro":12,"solar":1,"coal":1},"byTier":{"500MW-1GW":6,"100-500MW":16},"plants":[{"name":"Kallpa","mw":952,"lat":-12.4976,"lon":-76.7295,"fuel":"gas","tier":"500MW-1GW","year":null},{"name":"Antunez de Mayolo (Mantaro)","mw":798,"lat":-12.4644,"lon":-74.7865,"fuel":"hydro","tier":"500MW-1GW","year":1978},{"name":"Chilca 1","mw":734,"lat":-12.497,"lon":-76.7292,"fuel":"gas","tier":"500MW-1GW","year":null},{"name":"Fenix","mw":579,"lat":-12.544,"lon":-76.7357,"fuel":"gas","tier":"500MW-1GW","year":null},{"name":"Reserva Fria Ilo","mw":569,"lat":-17.7772,"lon":-71.1871,"fuel":"gas","tier":"500MW-1GW","year":2013},{"name":"Ventanilla","mw":524,"lat":-11.9358,"lon":-77.118,"fuel":"gas","tier":"500MW-1GW","year":null},{"name":"Santa Rosa","mw":491,"lat":-12.0401,"lon":-77.0119,"fuel":"gas","tier":"100-500MW","year":null},{"name":"Huinco","mw":258,"lat":-11.8113,"lon":-76.6248,"fuel":"hydro","tier":"100-500MW","year":null},{"name":"CaÑon del Pato","mw":247,"lat":-8.813,"lon":-77.8526,"fuel":"hydro","tier":"100-500MW","year":1958},{"name":"El Platanal","mw":220,"lat":-12.8374,"lon":-75.9774,"fuel":"hydro","tier":"100-500MW","year":2010},{"name":"Restitucion","mw":210,"lat":-12.3477,"lon":-74.6431,"fuel":"hydro","tier":"100-500MW","year":1973},{"name":"AguaytÍa","mw":203,"lat":-9.0288,"lon":-75.4926,"fuel":"gas","tier":"100-500MW","year":null},{"name":"Macchu Picchu","mw":189,"lat":-13.1739,"lon":-72.564,"fuel":"hydro","tier":"100-500MW","year":1964},{"name":"Charcani V","mw":145,"lat":-16.2457,"lon":-71.3472,"fuel":"hydro","tier":"100-500MW","year":1989},{"name":"Rubi","mw":145,"lat":-17.19,"lon":-71.01,"fuel":"solar","tier":"100-500MW","year":null},{"name":"Chimay","mw":143,"lat":-11.3248,"lon":-75.3006,"fuel":"hydro","tier":"100-500MW","year":2000},{"name":"Ilo 2","mw":135,"lat":-17.778,"lon":-71.1859,"fuel":"gas","tier":"100-500MW","year":null},{"name":"Ilo 1","mw":132,"lat":-17.7762,"lon":-71.1896,"fuel":"coal","tier":"100-500MW","year":null},{"name":"YuncÁn","mw":130,"lat":-10.723,"lon":-75.6455,"fuel":"hydro","tier":"100-500MW","year":null},{"name":"Matucana","mw":120,"lat":-11.8865,"lon":-76.4556,"fuel":"hydro","tier":"100-500MW","year":null},{"name":"Quitaracsa","mw":115,"lat":-8.4438,"lon":-77.5425,"fuel":"hydro","tier":"100-500MW","year":null},{"name":"San Gaban II","mw":114,"lat":-13.7219,"lon":-70.4532,"fuel":"hydro","tier":"100-500MW","year":1999}]}