{"iso3":"PHL","count":72,"source":{"label":"GEM Global Integrated Power Tracker (Mar 2026)","url":"https://globalenergymonitor.org/projects/global-integrated-power-tracker/","year":2026},"byFuel":{"coal":23,"gas":5,"oil":11,"hydro":13,"geothermal":9,"solar":9,"wind":2},"byTier":{"1-2GW":7,"500MW-1GW":9,"100-500MW":56},"plants":[{"name":"Dinginin power station","mw":1336,"lat":14.4246,"lon":120.541,"fuel":"coal","tier":"1-2GW","year":2022},{"name":"Sual power station","mw":1294,"lat":16.125,"lon":120.1006,"fuel":"coal","tier":"1-2GW","year":1999},{"name":"Ilijan power station","mw":1251,"lat":13.622,"lon":121.0795,"fuel":"gas","tier":"1-2GW","year":2002},{"name":"Pagbilao power station","mw":1155,"lat":13.8932,"lon":121.745,"fuel":"coal","tier":"1-2GW","year":1996},{"name":"Santa Rita power station","mw":1101,"lat":13.7704,"lon":121.0353,"fuel":"gas","tier":"1-2GW","year":1978},{"name":"Quezon power station","mw":1066,"lat":14.2296,"lon":121.7558,"fuel":"coal","tier":"1-2GW","year":2000},{"name":"Masinloc power station","mw":1026,"lat":15.5641,"lon":119.9231,"fuel":"coal","tier":"1-2GW","year":1998},{"name":"Calaca power station","mw":900,"lat":13.9326,"lon":120.7897,"fuel":"coal","tier":"500MW-1GW","year":1984},{"name":"Batangas Combined Cycle power plant","mw":875,"lat":13.6255,"lon":121.0854,"fuel":"gas","tier":"500MW-1GW","year":2025},{"name":"Mariveles Power Plant","mw":652,"lat":14.4252,"lon":120.537,"fuel":"coal","tier":"500MW-1GW","year":2013},{"name":"Malaya Thermal power station","mw":650,"lat":14.3958,"lon":121.3334,"fuel":"oil","tier":"500MW-1GW","year":1975},{"name":"SMC Mariveles power station","mw":600,"lat":14.4494,"lon":120.4323,"fuel":"coal","tier":"500MW-1GW","year":2024},{"name":"Lanao Kauswagan power station","mw":552,"lat":8.1869,"lon":124.1154,"fuel":"coal","tier":"500MW-1GW","year":2019},{"name":"San Lorenzo power station","mw":550,"lat":13.7704,"lon":121.0335,"fuel":"gas","tier":"500MW-1GW","year":2002},{"name":"Bataan power station","mw":540,"lat":14.551,"lon":120.5975,"fuel":"oil","tier":"500MW-1GW","year":2008},{"name":"Limay power station","mw":536,"lat":14.5204,"lon":120.6027,"fuel":"coal","tier":"500MW-1GW","year":2017},{"name":"San Roque hydroelectric plant","mw":435,"lat":16.1497,"lon":120.6808,"fuel":"hydro","tier":"100-500MW","year":2003},{"name":"San Gabriel power station","mw":420,"lat":13.7765,"lon":121.0307,"fuel":"gas","tier":"100-500MW","year":2016},{"name":"Misamis Oriental power station","mw":405,"lat":8.561,"lon":124.7478,"fuel":"coal","tier":"100-500MW","year":2016},{"name":"Magat hydroelectric plant","mw":380,"lat":16.8262,"lon":121.4554,"fuel":"hydro","tier":"100-500MW","year":1983},{"name":"Kalayaan 2 hydroelectric plant","mw":370,"lat":14.3171,"lon":121.4737,"fuel":"hydro","tier":"100-500MW","year":1983},{"name":"Kalayaan 1 hydroelectric plant","mw":366,"lat":14.3171,"lon":121.4737,"fuel":"hydro","tier":"100-500MW","year":1983},{"name":"Makban geothermal power plant","mw":362,"lat":14.0917,"lon":121.2143,"fuel":"geothermal","tier":"100-500MW","year":1979},{"name":"Therma Visayas Energy Project","mw":340,"lat":10.3497,"lon":123.6036,"fuel":"coal","tier":"100-500MW","year":2019},{"name":"Tiwi geothermal power plant","mw":330,"lat":13.4655,"lon":123.6486,"fuel":"geothermal","tier":"100-500MW","year":1979},{"name":"Panay power station","mw":314,"lat":10.7244,"lon":122.5958,"fuel":"coal","tier":"100-500MW","year":2010},{"name":"San Marcelino Solar Power Project","mw":304,"lat":15.0132,"lon":120.2493,"fuel":"solar","tier":"100-500MW","year":2024},{"name":"Davao San Miguel power station","mw":300,"lat":6.3935,"lon":125.6168,"fuel":"coal","tier":"100-500MW","year":2017},{"name":"Davao Therma South power station","mw":300,"lat":6.9644,"lon":125.4797,"fuel":"coal","tier":"100-500MW","year":2015},{"name":"Puting Bato power station","mw":270,"lat":13.9193,"lon":120.8261,"fuel":"coal","tier":"100-500MW","year":2015},{"name":"Pulangi 4 hydroelectric plant","mw":255,"lat":7.7157,"lon":125.0237,"fuel":"hydro","tier":"100-500MW","year":1985},{"name":"Agus 6 hydroelectric plant","mw":250,"lat":8.1848,"lon":124.1926,"fuel":"hydro","tier":"100-500MW","year":1953},{"name":"Cebu Energy power station","mw":246,"lat":10.3872,"lon":123.641,"fuel":"coal","tier":"100-500MW","year":2010},{"name":"Therma Mobile, Inc. (TMO) power station","mw":242,"lat":14.6363,"lon":120.95,"fuel":"oil","tier":"100-500MW","year":2013},{"name":"Bauang La Union Diesel power plant","mw":235,"lat":16.4905,"lon":120.3271,"fuel":"oil","tier":"100-500MW","year":1994},{"name":"Malitbog geothermal power plant","mw":234,"lat":11.1525,"lon":124.6492,"fuel":"geothermal","tier":"100-500MW","year":1996},{"name":"Mindanao Steag power station","mw":232,"lat":8.5725,"lon":124.7573,"fuel":"coal","tier":"100-500MW","year":2006},{"name":"Naga power station","mw":221,"lat":10.2175,"lon":123.7606,"fuel":"coal","tier":"100-500MW","year":2010},{"name":"Angat hydroelectric plant","mw":218,"lat":14.9071,"lon":121.1608,"fuel":"hydro","tier":"100-500MW","year":1967},{"name":"Kamanga power station","mw":210,"lat":5.8687,"lon":125.0798,"fuel":"coal","tier":"100-500MW","year":2016},{"name":"Mahanagdong geothermal facility","mw":180,"lat":11.1309,"lon":124.6695,"fuel":"geothermal","tier":"100-500MW","year":1997},{"name":"Agus 2 hydroelectric plant","mw":180,"lat":8.0464,"lon":124.2757,"fuel":"hydro","tier":"100-500MW","year":1979},{"name":"Calatrava solar farm","mw":173,"lat":10.9297,"lon":123.4418,"fuel":"solar","tier":"100-500MW","year":2024},{"name":"Balingasag power station","mw":165,"lat":8.766,"lon":124.767,"fuel":"coal","tier":"100-500MW","year":2017},{"name":"Pagudpud (ACEN) Wind Power Project","mw":160,"lat":18.5877,"lon":120.8732,"fuel":"wind","tier":"100-500MW","year":2024},{"name":"Agus 4 hydroelectric plant","mw":158,"lat":8.1339,"lon":124.1983,"fuel":"hydro","tier":"100-500MW","year":1985},{"name":"Ingrid power station","mw":151,"lat":14.3928,"lon":121.3337,"fuel":"oil","tier":"100-500MW","year":2021},{"name":"Burgos Wind Power Project","mw":150,"lat":18.5339,"lon":120.6479,"fuel":"wind","tier":"100-500MW","year":2014},{"name":"Bac-Man geothermal power plant","mw":150,"lat":13.0547,"lon":123.9678,"fuel":"geothermal","tier":"100-500MW","year":1993},{"name":"Casecnan hydroelectric plant","mw":150,"lat":15.8398,"lon":121.1997,"fuel":"hydro","tier":"100-500MW","year":2001},{"name":"Petron Refinery power station","mw":140,"lat":14.529,"lon":120.6011,"fuel":"coal","tier":"100-500MW","year":2013},{"name":"Binga hydroelectric plant","mw":140,"lat":16.3903,"lon":120.7183,"fuel":"hydro","tier":"100-500MW","year":1960},{"name":"Concepcion power station","mw":135,"lat":11.1876,"lon":123.1207,"fuel":"coal","tier":"100-500MW","year":2016},{"name":"Cagayan North Solar Power Plant Project","mw":134,"lat":18.1217,"lon":121.7152,"fuel":"solar","tier":"100-500MW","year":2024},{"name":"Cadiz Solar Power Project","mw":132,"lat":10.9247,"lon":123.2973,"fuel":"solar","tier":"100-500MW","year":2016},{"name":"Laoag Solar Power Project","mw":129,"lat":15.8462,"lon":120.2174,"fuel":"solar","tier":"100-500MW","year":2024},{"name":"Upper Mahiao geothermal power plant","mw":125,"lat":11.173,"lon":124.6294,"fuel":"geothermal","tier":"100-500MW","year":1996},{"name":"Subic diesel power station","mw":120,"lat":14.8173,"lon":120.2999,"fuel":"oil","tier":"100-500MW","year":1994},{"name":"Alaminos Solar Power Project","mw":120,"lat":14.071,"lon":121.226,"fuel":"solar","tier":"100-500MW","year":2022},{"name":"Pantabangan hydroelectric plant","mw":120,"lat":15.8114,"lon":121.1082,"fuel":"hydro","tier":"100-500MW","year":1977},{"name":"Arayat-Mexico solar farm","mw":116,"lat":15.1655,"lon":120.6822,"fuel":"solar","tier":"100-500MW","year":2022},{"name":"Palinpinon 1 geothermal power plant","mw":114,"lat":9.295,"lon":123.1723,"fuel":"geothermal","tier":"100-500MW","year":1983},{"name":"Tongonan geothermal power plant","mw":114,"lat":11.1612,"lon":124.6371,"fuel":"geothermal","tier":"100-500MW","year":1983},{"name":"Iligan Diesel power plant","mw":113,"lat":8.3277,"lon":124.2553,"fuel":"oil","tier":"100-500MW","year":2013},{"name":"Western Mindanao Power Corporation (WMPC) Zamboanga power station","mw":112,"lat":7.0818,"lon":122.2142,"fuel":"oil","tier":"100-500MW","year":1997},{"name":"Mindanao geothermal power plant","mw":110,"lat":7.0127,"lon":125.2198,"fuel":"geothermal","tier":"100-500MW","year":1997},{"name":"Ambuklao hydroelectric plant","mw":105,"lat":16.4588,"lon":120.7452,"fuel":"hydro","tier":"100-500MW","year":1956},{"name":"Santa Rita Solar Power Project","mw":101,"lat":14.7889,"lon":120.3612,"fuel":"solar","tier":"100-500MW","year":2016},{"name":"Millennium Gas Turbine Power Plant","mw":100,"lat":14.6733,"lon":120.9575,"fuel":"oil","tier":"100-500MW","year":2015},{"name":"Therma Marine Inc (TMI) 1 power barge power station","mw":100,"lat":7.35,"lon":125.8533,"fuel":"oil","tier":"100-500MW","year":1994},{"name":"Therma Marine Inc (TMI) 2 power barge power station","mw":100,"lat":8.978,"lon":125.3316,"fuel":"oil","tier":"100-500MW","year":1994},{"name":"Concepcion 1 Solar Power Project","mw":100,"lat":15.343,"lon":120.6716,"fuel":"solar","tier":"100-500MW","year":2019}]}