{"iso3":"PHL","count":51,"source":{"label":"WRI Global Power Plant Database v1.3","url":"https://datasets.wri.org/dataset/globalpowerplantdatabase","year":2021},"byFuel":{"gas":5,"coal":20,"hydro":12,"oil":5,"geothermal":7,"solar":2},"byTier":{"1-2GW":4,"500MW-1GW":8,"100-500MW":39},"plants":[{"name":"ILIJAN","mw":1271,"lat":13.622,"lon":121.0795,"fuel":"gas","tier":"1-2GW","year":null},{"name":"Sual power station","mw":1218,"lat":16.1243,"lon":120.1012,"fuel":"coal","tier":"1-2GW","year":1999},{"name":"Pagbilao power station","mw":1154,"lat":13.8932,"lon":121.745,"fuel":"coal","tier":"1-2GW","year":2004},{"name":"STA RITA","mw":1060,"lat":13.7703,"lon":121.035,"fuel":"gas","tier":"1-2GW","year":null},{"name":"Calaca power station","mw":900,"lat":13.9303,"lon":120.7886,"fuel":"coal","tier":"500MW-1GW","year":2007},{"name":"KALAYAAN PSPP","mw":739,"lat":14.3168,"lon":121.4739,"fuel":"hydro","tier":"500MW-1GW","year":null},{"name":"Masinloc power station","mw":660,"lat":15.5645,"lon":119.9233,"fuel":"coal","tier":"500MW-1GW","year":1998},{"name":"MALAYA","mw":650,"lat":14.3959,"lon":121.3337,"fuel":"oil","tier":"500MW-1GW","year":null},{"name":"LIMAY CCGT","mw":620,"lat":14.5434,"lon":120.5987,"fuel":"oil","tier":"500MW-1GW","year":null},{"name":"UNIFIED LEYTE","mw":610,"lat":11.1308,"lon":124.6553,"fuel":"geothermal","tier":"500MW-1GW","year":null},{"name":"Mariveles Power Plant","mw":600,"lat":14.4252,"lon":120.537,"fuel":"coal","tier":"500MW-1GW","year":2013},{"name":"SAN LORENZO","mw":530,"lat":13.7717,"lon":124.0349,"fuel":"gas","tier":"500MW-1GW","year":null},{"name":"San Gabriel","mw":450,"lat":13.7769,"lon":121.0261,"fuel":"gas","tier":"100-500MW","year":2016},{"name":"MAKBAN","mw":443,"lat":14.0881,"lon":121.2264,"fuel":"geothermal","tier":"100-500MW","year":null},{"name":"Quezon power station","mw":440,"lat":14.2296,"lon":121.7558,"fuel":"coal","tier":"100-500MW","year":2000},{"name":"SAN ROQUE","mw":411,"lat":16.1462,"lon":120.6837,"fuel":"hydro","tier":"100-500MW","year":null},{"name":"Misamis Oriental power station","mw":405,"lat":8.5601,"lon":124.7465,"fuel":"coal","tier":"100-500MW","year":2016},{"name":"MAGAT","mw":360,"lat":16.8293,"lon":121.4537,"fuel":"hydro","tier":"100-500MW","year":null},{"name":"PEDC Coal","mw":314,"lat":10.7235,"lon":122.5961,"fuel":"coal","tier":"100-500MW","year":null},{"name":"Naga power complex","mw":311,"lat":10.2175,"lon":123.7606,"fuel":"coal","tier":"100-500MW","year":2001},{"name":"AGUS 5","mw":309,"lat":8.1937,"lon":124.1915,"fuel":"hydro","tier":"100-500MW","year":null},{"name":"Davao San Miguel power station","mw":300,"lat":6.3943,"lon":125.6173,"fuel":"coal","tier":"100-500MW","year":2017},{"name":"Davao Therma South power station","mw":300,"lat":6.9644,"lon":125.4797,"fuel":"coal","tier":"100-500MW","year":2016},{"name":"Limay power station","mw":300,"lat":14.5204,"lon":120.6027,"fuel":"coal","tier":"100-500MW","year":2018},{"name":"SCPC U1","mw":300,"lat":14.5247,"lon":120.5964,"fuel":"coal","tier":"100-500MW","year":2017},{"name":"SLPGC","mw":300,"lat":13.9201,"lon":120.8265,"fuel":"coal","tier":"100-500MW","year":2016},{"name":"SLTEC Putting Bato","mw":270,"lat":13.9328,"lon":120.7909,"fuel":"coal","tier":"100-500MW","year":2016},{"name":"PULANGI 4","mw":255,"lat":7.7156,"lon":125.0236,"fuel":"hydro","tier":"100-500MW","year":null},{"name":"ANGAT","mw":246,"lat":14.9098,"lon":121.1603,"fuel":"hydro","tier":"100-500MW","year":null},{"name":"BAUANG DPP","mw":235,"lat":16.4907,"lon":120.3261,"fuel":"oil","tier":"100-500MW","year":null},{"name":"TIWI","mw":234,"lat":13.4655,"lon":123.6486,"fuel":"geothermal","tier":"100-500MW","year":null},{"name":"Mindanao Steag power station","mw":232,"lat":8.5725,"lon":124.7573,"fuel":"coal","tier":"100-500MW","year":2006},{"name":"PALINPINON GPP","mw":193,"lat":9.3031,"lon":123.2141,"fuel":"geothermal","tier":"100-500MW","year":null},{"name":"AGUS 2","mw":180,"lat":8.0528,"lon":124.2709,"fuel":"hydro","tier":"100-500MW","year":null},{"name":"Balingasag power station","mw":165,"lat":8.7662,"lon":124.7685,"fuel":"coal","tier":"100-500MW","year":2017},{"name":"CASECNAN (NIA)","mw":165,"lat":15.8462,"lon":121.1998,"fuel":"hydro","tier":"100-500MW","year":null},{"name":"AGUS 4","mw":158,"lat":8.1336,"lon":124.1983,"fuel":"hydro","tier":"100-500MW","year":null},{"name":"PCPC","mw":135,"lat":11.1872,"lon":123.121,"fuel":"coal","tier":"100-500MW","year":2016},{"name":"Helios","mw":133,"lat":14.1033,"lon":121.5423,"fuel":"solar","tier":"100-500MW","year":2016},{"name":"BINGA","mw":132,"lat":16.3944,"lon":120.729,"fuel":"hydro","tier":"100-500MW","year":null},{"name":"PANTABANGAN-MASIWAY","mw":132,"lat":15.8107,"lon":121.109,"fuel":"hydro","tier":"100-500MW","year":null},{"name":"BACMAN","mw":130,"lat":13.0547,"lon":123.9678,"fuel":"geothermal","tier":"100-500MW","year":null},{"name":"SEC","mw":118,"lat":5.871,"lon":125.0789,"fuel":"coal","tier":"100-500MW","year":2016},{"name":"SUBIC DPP","mw":116,"lat":14.88,"lon":120.2343,"fuel":"oil","tier":"100-500MW","year":null},{"name":"LEYTE GPP","mw":113,"lat":11.1308,"lon":124.6553,"fuel":"geothermal","tier":"100-500MW","year":null},{"name":"WMPC","mw":113,"lat":7.0694,"lon":122.2014,"fuel":"oil","tier":"100-500MW","year":null},{"name":"MT APO","mw":109,"lat":7.0083,"lon":125.0894,"fuel":"geothermal","tier":"100-500MW","year":null},{"name":"CEBU TPP(Salcon)","mw":107,"lat":10.2185,"lon":123.7577,"fuel":"coal","tier":"100-500MW","year":null},{"name":"AMBUKLAO","mw":105,"lat":16.4588,"lon":120.7452,"fuel":"hydro","tier":"100-500MW","year":null},{"name":"Avion","mw":100,"lat":13.7606,"lon":121.046,"fuel":"gas","tier":"100-500MW","year":2016},{"name":"Concepcion","mw":100,"lat":15.335,"lon":120.695,"fuel":"solar","tier":"100-500MW","year":null}]}