{"iso3":"PRT","count":23,"byFuel":{"coal":2,"gas":4,"hydro":2,"wind":14,"solar":1},"byTier":{"1-2GW":2,"500MW-1GW":6,"100-500MW":15},"plants":[{"name":"Sines power station","mw":1296,"lat":37.9322,"lon":-8.8038,"fuel":"coal","tier":"1-2GW","year":1986},{"name":"Ribatejo","mw":1176,"lat":39.0118,"lon":-8.9521,"fuel":"gas","tier":"1-2GW","year":2005},{"name":"Tapada do Outeiro","mw":990,"lat":41.07,"lon":-8.4587,"fuel":"gas","tier":"500MW-1GW","year":null},{"name":"Pego C.C.","mw":837,"lat":39.4689,"lon":-8.1113,"fuel":"gas","tier":"500MW-1GW","year":null},{"name":"Lares","mw":826,"lat":40.1245,"lon":-8.775,"fuel":"gas","tier":"500MW-1GW","year":2009},{"name":"Frades II","mw":780,"lat":41.6934,"lon":-8.0279,"fuel":"hydro","tier":"500MW-1GW","year":null},{"name":"Pego power station","mw":682,"lat":39.468,"lon":-8.1097,"fuel":"coal","tier":"500MW-1GW","year":1994},{"name":"Alto Lindoso","mw":630,"lat":41.8693,"lon":-8.2029,"fuel":"hydro","tier":"500MW-1GW","year":null},{"name":"Alto Douro","mw":253,"lat":41.0696,"lon":-7.5769,"fuel":"wind","tier":"100-500MW","year":2010},{"name":"Alto Minho I","mw":240,"lat":42.0154,"lon":-8.3456,"fuel":"wind","tier":"100-500MW","year":2008},{"name":"Solara4","mw":219,"lat":37.365,"lon":-7.665,"fuel":"solar","tier":"100-500MW","year":null},{"name":"Alto da Coutada","mw":166,"lat":41.5452,"lon":-7.5545,"fuel":"wind","tier":"100-500MW","year":2010},{"name":"Pinhal Interior","mw":144,"lat":39.9416,"lon":-7.9655,"fuel":"wind","tier":"100-500MW","year":2006},{"name":"Raia","mw":129,"lat":40.4297,"lon":-7.2443,"fuel":"wind","tier":"100-500MW","year":2011},{"name":"Penamacor","mw":124,"lat":40.2064,"lon":-7.2489,"fuel":"wind","tier":"100-500MW","year":2006},{"name":"Arada-Montemuro","mw":121,"lat":40.9466,"lon":-8.0368,"fuel":"wind","tier":"100-500MW","year":2008},{"name":"Gardunha","mw":114,"lat":40.0695,"lon":-7.6647,"fuel":"wind","tier":"100-500MW","year":2007},{"name":"Pampilhosa da Serra","mw":114,"lat":40.1205,"lon":-7.9462,"fuel":"wind","tier":"100-500MW","year":2005},{"name":"Serra dos Candeeiros","mw":111,"lat":39.4087,"lon":-8.9386,"fuel":"wind","tier":"100-500MW","year":2005},{"name":"Terras Altas de Fafe","mw":106,"lat":41.4841,"lon":-8.0671,"fuel":"wind","tier":"100-500MW","year":2004},{"name":"Terra Fria","mw":104,"lat":41.7783,"lon":-7.8747,"fuel":"wind","tier":"100-500MW","year":2010},{"name":"Toutiço","mw":102,"lat":40.1718,"lon":-7.8336,"fuel":"wind","tier":"100-500MW","year":2008},{"name":"Beiras","mw":101,"lat":40.2354,"lon":-7.7422,"fuel":"wind","tier":"100-500MW","year":2010}]}