{"iso3":"ROU","count":29,"source":{"label":"WRI Global Power Plant Database v1.3","url":"https://datasets.wri.org/dataset/globalpowerplantdatabase","year":2021},"byFuel":{"coal":9,"nuclear":1,"hydro":10,"gas":8,"wind":1},"byTier":{"1-2GW":5,"500MW-1GW":4,"100-500MW":20},"plants":[{"name":"Turceni power station","mw":1650,"lat":44.6694,"lon":23.408,"fuel":"coal","tier":"1-2GW","year":1983},{"name":"Rovinari power station","mw":1320,"lat":44.9068,"lon":23.1383,"fuel":"coal","tier":"1-2GW","year":1977},{"name":"NPP Cernavoda","mw":1298,"lat":44.3215,"lon":28.0568,"fuel":"nuclear","tier":"1-2GW","year":null},{"name":"HPP Portile de Fier I","mw":1161,"lat":44.6733,"lon":22.532,"fuel":"hydro","tier":"1-2GW","year":1972},{"name":"Mintia-Deva power station","mw":1075,"lat":45.9134,"lon":22.8254,"fuel":"coal","tier":"1-2GW","year":1976},{"name":"TPP CCCC Petrom Brazi","mw":860,"lat":44.8802,"lon":25.9988,"fuel":"gas","tier":"500MW-1GW","year":2012},{"name":"TPP Iernut","mw":751,"lat":46.4677,"lon":24.1833,"fuel":"gas","tier":"500MW-1GW","year":null},{"name":"Isalnita power station","mw":630,"lat":44.3886,"lon":23.718,"fuel":"coal","tier":"500MW-1GW","year":1988},{"name":"HPP Lotru","mw":509,"lat":45.4472,"lon":23.7683,"fuel":"hydro","tier":"500MW-1GW","year":null},{"name":"TPP  Braila","mw":413,"lat":45.166,"lon":27.9235,"fuel":"gas","tier":"100-500MW","year":null},{"name":"TPP Galati","mw":346,"lat":45.436,"lon":27.9814,"fuel":"gas","tier":"100-500MW","year":null},{"name":"HPP Raul Mare","mw":335,"lat":45.3391,"lon":22.7213,"fuel":"hydro","tier":"100-500MW","year":1986},{"name":"TPP Drobeta","mw":313,"lat":44.6751,"lon":22.6878,"fuel":"coal","tier":"100-500MW","year":null},{"name":"TPP Bucuresti Vest","mw":298,"lat":44.4233,"lon":25.979,"fuel":"gas","tier":"100-500MW","year":null},{"name":"TPP Bucuresti Sud","mw":280,"lat":44.4233,"lon":25.979,"fuel":"gas","tier":"100-500MW","year":null},{"name":"TPP Craiova","mw":262,"lat":44.345,"lon":23.8156,"fuel":"coal","tier":"100-500MW","year":1988},{"name":"WPP Cogealac","mw":246,"lat":44.5903,"lon":28.5653,"fuel":"wind","tier":"100-500MW","year":null},{"name":"HPP Portile de Fier II","mw":245,"lat":44.3074,"lon":22.5672,"fuel":"hydro","tier":"100-500MW","year":null},{"name":"TPP Brazi","mw":220,"lat":44.8802,"lon":25.9988,"fuel":"gas","tier":"100-500MW","year":2007},{"name":"HPP Mariselu","mw":219,"lat":46.6679,"lon":23.059,"fuel":"hydro","tier":"100-500MW","year":null},{"name":"HPP Vidraru","mw":219,"lat":45.3667,"lon":24.6307,"fuel":"hydro","tier":"100-500MW","year":null},{"name":"HPP Stejaru","mw":208,"lat":46.9386,"lon":26.1029,"fuel":"hydro","tier":"100-500MW","year":null},{"name":"TPP Progresu","mw":184,"lat":44.372,"lon":26.1073,"fuel":"gas","tier":"100-500MW","year":null},{"name":"TPP Govora","mw":177,"lat":45.04,"lon":24.29,"fuel":"coal","tier":"100-500MW","year":null},{"name":"TPP Oradea","mw":170,"lat":47.0842,"lon":21.8928,"fuel":"coal","tier":"100-500MW","year":null},{"name":"Paroseni power station","mw":150,"lat":45.3647,"lon":23.261,"fuel":"coal","tier":"100-500MW","year":1964},{"name":"HPP Galceag","mw":149,"lat":45.5879,"lon":23.6279,"fuel":"hydro","tier":"100-500MW","year":null},{"name":"HPP Sugag","mw":149,"lat":45.6892,"lon":23.6094,"fuel":"hydro","tier":"100-500MW","year":null},{"name":"HPP Ruieni","mw":138,"lat":45.426,"lon":22.4757,"fuel":"hydro","tier":"100-500MW","year":null}]}