{"iso3":"SRB","count":12,"byFuel":{"coal":8,"hydro":4},"byTier":{"1-2GW":3,"500MW-1GW":4,"100-500MW":5},"plants":[{"name":"TENT A","mw":1730,"lat":44.6711,"lon":20.1593,"fuel":"coal","tier":"1-2GW","year":null},{"name":"TENT B","mw":1270,"lat":44.6551,"lon":20.0053,"fuel":"coal","tier":"1-2GW","year":null},{"name":"HE DJERDAP I","mw":1086,"lat":44.6684,"lon":22.5268,"fuel":"hydro","tier":"1-2GW","year":null},{"name":"TE KOSTOLAC B","mw":697,"lat":44.7307,"lon":21.2104,"fuel":"coal","tier":"500MW-1GW","year":null},{"name":"TE KOSOVO B","mw":618,"lat":42.6945,"lon":21.059,"fuel":"coal","tier":"500MW-1GW","year":null},{"name":"TE KOSOVO A","mw":617,"lat":42.6773,"lon":21.0886,"fuel":"coal","tier":"500MW-1GW","year":null},{"name":"RHE BAJINA BASTA","mw":614,"lat":43.9645,"lon":19.4102,"fuel":"hydro","tier":"500MW-1GW","year":null},{"name":"HE BAJINA BASTA","mw":420,"lat":43.9645,"lon":19.4102,"fuel":"hydro","tier":"100-500MW","year":null},{"name":"TE KOSTOLAC A","mw":281,"lat":44.7229,"lon":21.1717,"fuel":"coal","tier":"100-500MW","year":null},{"name":"HE DJERDAP II","mw":270,"lat":44.3065,"lon":22.5667,"fuel":"hydro","tier":"100-500MW","year":null},{"name":"TE KOLUBARA","mw":245,"lat":44.4806,"lon":20.2934,"fuel":"coal","tier":"100-500MW","year":null},{"name":"TE MORAVA","mw":110,"lat":44.2248,"lon":21.1627,"fuel":"coal","tier":"100-500MW","year":null}]}