{"iso3":"SWE","count":52,"source":{"label":"WRI Global Power Plant Database v1.3","url":"https://datasets.wri.org/dataset/globalpowerplantdatabase","year":2021},"byFuel":{"nuclear":3,"hydro":40,"oil":1,"gas":3,"biofuel":3,"wind":2},"byTier":{"2GW+":3,"1-2GW":1,"500MW-1GW":4,"100-500MW":44},"plants":[{"name":"Ringhals","mw":3932,"lat":57.2574,"lon":12.1087,"fuel":"nuclear","tier":"2GW+","year":null},{"name":"Forsmark","mw":3227,"lat":60.4028,"lon":18.1744,"fuel":"nuclear","tier":"2GW+","year":null},{"name":"Oskarshamn","mw":2603,"lat":57.413,"lon":16.6683,"fuel":"nuclear","tier":"2GW+","year":null},{"name":"Karlshamn","mw":1020,"lat":56.1522,"lon":14.8325,"fuel":"hydro","tier":"1-2GW","year":null},{"name":"Harspranget","mw":871,"lat":66.8857,"lon":19.8186,"fuel":"hydro","tier":"500MW-1GW","year":1919},{"name":"Stenungsund","mw":840,"lat":58.0863,"lon":11.8435,"fuel":"oil","tier":"500MW-1GW","year":null},{"name":"Värme","mw":639,"lat":59.3532,"lon":18.0985,"fuel":"gas","tier":"500MW-1GW","year":1980},{"name":"Stornorrfors","mw":599,"lat":63.8803,"lon":20.0184,"fuel":"hydro","tier":"500MW-1GW","year":1958},{"name":"Letsi","mw":486,"lat":66.5024,"lon":20.3797,"fuel":"hydro","tier":"100-500MW","year":1967},{"name":"Messaure","mw":463,"lat":66.6855,"lon":20.3359,"fuel":"hydro","tier":"100-500MW","year":1963},{"name":"Nya Öresundsverket","mw":440,"lat":55.6261,"lon":13.0404,"fuel":"gas","tier":"100-500MW","year":null},{"name":"Porjus","mw":430,"lat":66.959,"lon":19.8023,"fuel":"hydro","tier":"100-500MW","year":1975},{"name":"​Värtaverket","mw":389,"lat":59.3532,"lon":18.0985,"fuel":"biofuel","tier":"100-500MW","year":2013},{"name":"Ligga","mw":332,"lat":66.8094,"lon":19.8968,"fuel":"hydro","tier":"100-500MW","year":1957},{"name":"Vietas","mw":325,"lat":67.4931,"lon":18.3549,"fuel":"hydro","tier":"100-500MW","year":null},{"name":"Ritsem","mw":304,"lat":67.732,"lon":17.49,"fuel":"hydro","tier":"100-500MW","year":1977},{"name":"Trängslet","mw":300,"lat":61.3811,"lon":13.7312,"fuel":"hydro","tier":"100-500MW","year":null},{"name":"Kilforsem","mw":296,"lat":63.5423,"lon":16.7629,"fuel":"hydro","tier":"100-500MW","year":1953},{"name":"Bjorkhojden","mw":288,"lat":63.423,"lon":16.1473,"fuel":"wind","tier":"100-500MW","year":null},{"name":"Porsi","mw":282,"lat":66.4288,"lon":20.6518,"fuel":"hydro","tier":"100-500MW","year":1967},{"name":"Rya","mw":261,"lat":57.6924,"lon":11.8905,"fuel":"gas","tier":"100-500MW","year":null},{"name":"Krångede","mw":250,"lat":63.1462,"lon":16.0706,"fuel":"hydro","tier":"100-500MW","year":1936},{"name":"Harrsele","mw":223,"lat":64.0155,"lon":19.5619,"fuel":"hydro","tier":"100-500MW","year":1957},{"name":"Laxede","mw":222,"lat":66.2242,"lon":20.86,"fuel":"hydro","tier":"100-500MW","year":null},{"name":"Gallejuar","mw":220,"lat":65.1141,"lon":19.4644,"fuel":"hydro","tier":"100-500MW","year":1964},{"name":"Seitevare","mw":214,"lat":66.9764,"lon":18.5748,"fuel":"hydro","tier":"100-500MW","year":null},{"name":"Hojum","mw":184,"lat":58.2804,"lon":12.2787,"fuel":"hydro","tier":"100-500MW","year":1941},{"name":"Bergeforsen","mw":166,"lat":62.5204,"lon":17.3875,"fuel":"hydro","tier":"100-500MW","year":1955},{"name":"Lasele","mw":165,"lat":63.5548,"lon":16.8289,"fuel":"hydro","tier":"100-500MW","year":null},{"name":"Forsmo","mw":158,"lat":63.2713,"lon":17.1987,"fuel":"hydro","tier":"100-500MW","year":1948},{"name":"Midskog","mw":155,"lat":63.2395,"lon":15.2372,"fuel":"hydro","tier":"100-500MW","year":1944},{"name":"Holleforsen","mw":151,"lat":62.9509,"lon":16.6681,"fuel":"hydro","tier":"100-500MW","year":null},{"name":"Akkats","mw":150,"lat":66.6314,"lon":19.8199,"fuel":"hydro","tier":"100-500MW","year":1973},{"name":"Stadsforsen","mw":142,"lat":62.9764,"lon":16.6584,"fuel":"hydro","tier":"100-500MW","year":1939},{"name":"Kvistforsen","mw":140,"lat":64.7507,"lon":20.9528,"fuel":"hydro","tier":"100-500MW","year":1962},{"name":"Moforsen","mw":135,"lat":63.3683,"lon":16.9876,"fuel":"hydro","tier":"100-500MW","year":null},{"name":"Vargfors","mw":134,"lat":65.0193,"lon":19.6856,"fuel":"hydro","tier":"100-500MW","year":1961},{"name":"Stalon","mw":130,"lat":64.947,"lon":16.8273,"fuel":"hydro","tier":"100-500MW","year":1961},{"name":"Uppsala","mw":130,"lat":59.8514,"lon":17.6783,"fuel":"biofuel","tier":"100-500MW","year":null},{"name":"Vartan","mw":130,"lat":59.352,"lon":18.101,"fuel":"biofuel","tier":"100-500MW","year":null},{"name":"Höljes","mw":128,"lat":60.9511,"lon":12.5432,"fuel":"hydro","tier":"100-500MW","year":1962},{"name":"Torpshammar","mw":119,"lat":62.4165,"lon":16.4952,"fuel":"hydro","tier":"100-500MW","year":1943},{"name":"Tuggen","mw":118,"lat":64.4735,"lon":18.8815,"fuel":"hydro","tier":"100-500MW","year":1962},{"name":"Alvkarleby","mw":116,"lat":60.5637,"lon":17.442,"fuel":"hydro","tier":"100-500MW","year":1991},{"name":"Namforsen","mw":115,"lat":63.4402,"lon":16.8804,"fuel":"hydro","tier":"100-500MW","year":1946},{"name":"Storfinnforsen","mw":112,"lat":63.5985,"lon":16.1218,"fuel":"hydro","tier":"100-500MW","year":null},{"name":"Lillgrund","mw":110,"lat":55.5167,"lon":12.7833,"fuel":"wind","tier":"100-500MW","year":2007},{"name":"Grundfors","mw":108,"lat":64.9654,"lon":17.5797,"fuel":"hydro","tier":"100-500MW","year":1958},{"name":"Bastusel","mw":107,"lat":65.4023,"lon":18.6727,"fuel":"hydro","tier":"100-500MW","year":1972},{"name":"Olidan","mw":104,"lat":58.275,"lon":12.2727,"fuel":"hydro","tier":"100-500MW","year":1910},{"name":"Krokströmmen","mw":103,"lat":62.0411,"lon":14.9004,"fuel":"hydro","tier":"100-500MW","year":1952},{"name":"Umluspen","mw":100,"lat":65.0959,"lon":17.1173,"fuel":"hydro","tier":"100-500MW","year":1957}]}