{"iso3":"SYR","count":14,"source":{"label":"WRI Global Power Plant Database v1.3","url":"https://datasets.wri.org/dataset/globalpowerplantdatabase","year":2021},"byFuel":{"oil":5,"hydro":2,"gas":7},"byTier":{"1-2GW":1,"500MW-1GW":8,"100-500MW":5},"plants":[{"name":"Aleppo Thermal Power Plant Syria","mw":1065,"lat":36.1763,"lon":37.437,"fuel":"oil","tier":"1-2GW","year":null},{"name":"Taqba (Al-Thawra) Hydroelectric Power Project Syria","mw":800,"lat":35.8722,"lon":38.5667,"fuel":"hydro","tier":"500MW-1GW","year":null},{"name":"Dier Ali CCGT Power Plant Syria","mw":750,"lat":33.2698,"lon":36.3278,"fuel":"gas","tier":"500MW-1GW","year":null},{"name":"Jandar CCGT Power Plant Syria","mw":700,"lat":34.4662,"lon":36.7834,"fuel":"gas","tier":"500MW-1GW","year":null},{"name":"Banias Thermal Power Plant Syria","mw":680,"lat":35.1715,"lon":35.927,"fuel":"oil","tier":"500MW-1GW","year":null},{"name":"Al-Zara Thermal Power Plant Syria","mw":660,"lat":34.959,"lon":36.661,"fuel":"oil","tier":"500MW-1GW","year":null},{"name":"Mehardeh Thermal Power Plant Syria","mw":630,"lat":35.263,"lon":36.585,"fuel":"oil","tier":"500MW-1GW","year":null},{"name":"Teshreen (Tishrin) Hydroelectric Power Project Syria","mw":630,"lat":36.3814,"lon":38.1833,"fuel":"hydro","tier":"500MW-1GW","year":null},{"name":"Zayzoun (Zayzun) CCGT Power Plant Syria","mw":544,"lat":35.737,"lon":36.362,"fuel":"gas","tier":"500MW-1GW","year":null},{"name":"Teshreen (Tishrin) Thermal Power Project Syria","mw":400,"lat":33.4186,"lon":36.6861,"fuel":"oil","tier":"100-500MW","year":null},{"name":"Al Nasryeh (Nasserieh) OCGT Power Plant Syria","mw":384,"lat":33.8012,"lon":36.6828,"fuel":"gas","tier":"100-500MW","year":null},{"name":"Teshreen (Tishrin) OCGT Power Project Syria","mw":256,"lat":33.4214,"lon":36.6889,"fuel":"gas","tier":"100-500MW","year":null},{"name":"Swedieh ( Suwaidiyah) OCGT Power Plant Syria","mw":150,"lat":37.0025,"lon":42.0698,"fuel":"gas","tier":"100-500MW","year":null},{"name":"Al Tayem OCGT Power Plant Syria","mw":100,"lat":35.2308,"lon":40.0672,"fuel":"gas","tier":"100-500MW","year":null}]}