{"iso3":"THA","count":86,"source":{"label":"GEM Global Integrated Power Tracker (Mar 2026)","url":"https://globalenergymonitor.org/projects/global-integrated-power-tracker/","year":2026},"byFuel":{"gas":61,"coal":6,"hydro":7,"wind":2,"biofuel":4,"solar":6},"byTier":{"2GW+":5,"1-2GW":8,"500MW-1GW":12,"100-500MW":61},"plants":[{"name":"Ratchaburi (RATCHGEN) power station","mw":3645,"lat":13.5979,"lon":99.8841,"fuel":"gas","tier":"2GW+","year":2002},{"name":"Bang Pakong power station","mw":3270,"lat":13.501,"lon":101.0253,"fuel":"gas","tier":"2GW+","year":1992},{"name":"Chonburi Ng Project power station","mw":2500,"lat":13.05,"lon":101.1933,"fuel":"gas","tier":"2GW+","year":2021},{"name":"Rayong Gulf PD power station","mw":2500,"lat":12.9502,"lon":101.1561,"fuel":"gas","tier":"2GW+","year":2023},{"name":"Mae Moh power station","mw":2455,"lat":18.296,"lon":99.752,"fuel":"coal","tier":"2GW+","year":1990},{"name":"Nong Saeng power station","mw":1600,"lat":14.4417,"lon":100.7756,"fuel":"gas","tier":"1-2GW","year":2014},{"name":"U-Thai power station","mw":1600,"lat":14.3317,"lon":100.6959,"fuel":"gas","tier":"1-2GW","year":2016},{"name":"Chana power station","mw":1476,"lat":6.9553,"lon":100.7076,"fuel":"gas","tier":"1-2GW","year":2008},{"name":"Kaeng Khoi 2 power station","mw":1468,"lat":14.605,"lon":101.0259,"fuel":"gas","tier":"1-2GW","year":2007},{"name":"Map Ta Phut BLCP power station","mw":1434,"lat":12.6435,"lon":101.1605,"fuel":"coal","tier":"1-2GW","year":2006},{"name":"Hin Kong power plant","mw":1400,"lat":13.536,"lon":99.743,"fuel":"gas","tier":"1-2GW","year":2024},{"name":"Ratchaburi Power (RPCL) power station","mw":1400,"lat":13.6068,"lon":99.8902,"fuel":"gas","tier":"1-2GW","year":2008},{"name":"Lam Ta Khong hydroelectric plant","mw":1000,"lat":14.8653,"lon":101.5603,"fuel":"hydro","tier":"1-2GW","year":2001},{"name":"Khanom power station","mw":970,"lat":9.2357,"lon":99.8593,"fuel":"gas","tier":"500MW-1GW","year":2016},{"name":"Bhumibol hydroelectric plant","mw":950,"lat":17.2414,"lon":98.9732,"fuel":"hydro","tier":"500MW-1GW","year":1964},{"name":"Wang Noi power station","mw":750,"lat":14.2324,"lon":100.7805,"fuel":"gas","tier":"500MW-1GW","year":2014},{"name":"Srinagarind hydroelectric plant","mw":720,"lat":14.4075,"lon":99.1261,"fuel":"hydro","tier":"500MW-1GW","year":1980},{"name":"Glow IPP power station","mw":714,"lat":13.0536,"lon":101.0857,"fuel":"gas","tier":"500MW-1GW","year":2003},{"name":"Sriracha power station","mw":700,"lat":13.1128,"lon":100.9085,"fuel":"gas","tier":"500MW-1GW","year":2000},{"name":"Amata (Chonburi) power station","mw":675,"lat":13.4191,"lon":101.0272,"fuel":"gas","tier":"500MW-1GW","year":1998},{"name":"Gheco One power station","mw":660,"lat":12.6747,"lon":101.1347,"fuel":"coal","tier":"500MW-1GW","year":2012},{"name":"Amata (Rayong) power station","mw":646,"lat":12.968,"lon":101.1183,"fuel":"gas","tier":"500MW-1GW","year":2013},{"name":"Jhimpir Power (Energy Absolute) wind farm","mw":600,"lat":15.5382,"lon":101.5644,"fuel":"wind","tier":"500MW-1GW","year":2019},{"name":"Glow Energy power complex","mw":529,"lat":12.6758,"lon":101.1352,"fuel":"coal","tier":"500MW-1GW","year":1999},{"name":"Sirikit hydroelectric plant","mw":500,"lat":17.7648,"lon":100.5634,"fuel":"hydro","tier":"500MW-1GW","year":1974},{"name":"304 Industrial Park power station","mw":398,"lat":13.9154,"lon":101.574,"fuel":"biofuel","tier":"100-500MW","year":null},{"name":"Glow Energy Phase 2 Power Station","mw":351,"lat":12.694,"lon":101.1452,"fuel":"gas","tier":"100-500MW","year":1996},{"name":"Bang Bo power station","mw":350,"lat":13.492,"lon":100.8416,"fuel":"gas","tier":"100-500MW","year":2003},{"name":"Glow Energy Phase 5 power station","mw":328,"lat":12.6779,"lon":101.1356,"fuel":"gas","tier":"100-500MW","year":2011},{"name":"Tha Tum power station","mw":328,"lat":13.9325,"lon":101.5876,"fuel":"coal","tier":"100-500MW","year":1999},{"name":"Krabi power station","mw":315,"lat":7.9934,"lon":99.0482,"fuel":"gas","tier":"100-500MW","year":2004},{"name":"IRPC power station","mw":307,"lat":12.6554,"lon":101.3118,"fuel":"coal","tier":"100-500MW","year":2012},{"name":"Vajiralongkorn hydroelectric plant","mw":300,"lat":14.7998,"lon":98.597,"fuel":"hydro","tier":"100-500MW","year":1984},{"name":"Glow SPP 1 power station","mw":280,"lat":12.6954,"lon":101.1288,"fuel":"gas","tier":"100-500MW","year":1998},{"name":"Ratchaburi (B.Grimm) power station","mw":280,"lat":13.5472,"lon":99.338,"fuel":"gas","tier":"100-500MW","year":2023},{"name":"Gulf Tasit 1 & 2 power station","mw":277,"lat":13.0174,"lon":101.1927,"fuel":"gas","tier":"100-500MW","year":2017},{"name":"Rojana power station","mw":275,"lat":14.3324,"lon":100.6382,"fuel":"gas","tier":"100-500MW","year":2015},{"name":"Glow SPP 11 power station","mw":272,"lat":13.0074,"lon":101.137,"fuel":"gas","tier":"100-500MW","year":2000},{"name":"Gulf Tasit 3 & 4 power station","mw":260,"lat":13.0649,"lon":101.1852,"fuel":"gas","tier":"100-500MW","year":2017},{"name":"Banpong power station","mw":256,"lat":13.8589,"lon":99.8558,"fuel":"gas","tier":"100-500MW","year":2017},{"name":"Gulf NRV power station","mw":256,"lat":14.9288,"lon":102.1771,"fuel":"gas","tier":"100-500MW","year":2019},{"name":"Gulf NLL power station","mw":250,"lat":12.8256,"lon":101.2487,"fuel":"gas","tier":"100-500MW","year":2013},{"name":"Bangpoo cogeneration power station","mw":240,"lat":13.5332,"lon":100.6514,"fuel":"gas","tier":"100-500MW","year":2016},{"name":"IRPC Industrial Zone Clean power station","mw":240,"lat":12.6754,"lon":101.3257,"fuel":"gas","tier":"100-500MW","year":2017},{"name":"Rajjaprabha hydroelectric plant","mw":240,"lat":8.973,"lon":98.8066,"fuel":"hydro","tier":"100-500MW","year":1987},{"name":"Sriracha Thai Oil Company power station","mw":239,"lat":13.1673,"lon":100.9072,"fuel":"gas","tier":"100-500MW","year":2016},{"name":"Bangpa-in power station","mw":234,"lat":14.1981,"lon":100.5822,"fuel":"gas","tier":"100-500MW","year":2013},{"name":"Ratchaburi World cogeneration power station","mw":234,"lat":13.6509,"lon":99.8468,"fuel":"gas","tier":"100-500MW","year":2015},{"name":"Bangkadi Industrial Park power station","mw":230,"lat":13.9745,"lon":100.5649,"fuel":"gas","tier":"100-500MW","year":2015},{"name":"Global Power Synergy Central Utility Plant 1","mw":226,"lat":12.7014,"lon":101.1258,"fuel":"gas","tier":"100-500MW","year":2006},{"name":"Gulf KP1 & 2 power station","mw":220,"lat":14.3875,"lon":100.9092,"fuel":"gas","tier":"100-500MW","year":2013},{"name":"Huay Bong wind farm","mw":208,"lat":15.1502,"lon":101.4601,"fuel":"wind","tier":"100-500MW","year":2012},{"name":"Saha Patana power station","mw":203,"lat":13.0988,"lon":100.9606,"fuel":"gas","tier":"100-500MW","year":1999},{"name":"Nava Nakorn power station","mw":199,"lat":14.1295,"lon":100.5968,"fuel":"gas","tier":"100-500MW","year":2016},{"name":"Charoen Pokphand Group solar farm","mw":197,"lat":14.9265,"lon":101.9693,"fuel":"solar","tier":"100-500MW","year":2023},{"name":"Laem Chabang power station","mw":196,"lat":13.0913,"lon":100.8943,"fuel":"gas","tier":"100-500MW","year":2009},{"name":"Breeze and Shine solar farm","mw":177,"lat":14.8961,"lon":99.8207,"fuel":"solar","tier":"100-500MW","year":2024},{"name":"TPI Power power station","mw":160,"lat":14.6453,"lon":101.1254,"fuel":"biofuel","tier":"100-500MW","year":2015},{"name":"Rayong Sipco power station","mw":160,"lat":12.7906,"lon":101.2459,"fuel":"gas","tier":"100-500MW","year":2007},{"name":"Solar Development solar farm","mw":142,"lat":14.3453,"lon":99.6178,"fuel":"solar","tier":"100-500MW","year":2024},{"name":"Gulf VTP power station","mw":137,"lat":13.004,"lon":101.1725,"fuel":"gas","tier":"100-500MW","year":2017},{"name":"Pak Mun hydroelectric plant","mw":136,"lat":15.2826,"lon":105.4683,"fuel":"hydro","tier":"100-500MW","year":1994},{"name":"National Power Plant 9 power station","mw":135,"lat":13.9311,"lon":101.5865,"fuel":"biofuel","tier":"100-500MW","year":2015},{"name":"Gulf NPM power station","mw":135,"lat":14.3665,"lon":100.8364,"fuel":"gas","tier":"100-500MW","year":2019},{"name":"Gulf NK2 power station","mw":133,"lat":14.3681,"lon":100.8358,"fuel":"gas","tier":"100-500MW","year":2013},{"name":"Hemaraj Industrial Estate power station","mw":130,"lat":13.0505,"lon":101.0859,"fuel":"gas","tier":"100-500MW","year":2017},{"name":"Lampang solar farm","mw":128,"lat":18.3704,"lon":99.4146,"fuel":"solar","tier":"100-500MW","year":2015},{"name":"Gulf BL power station","mw":127,"lat":14.2528,"lon":100.5888,"fuel":"gas","tier":"100-500MW","year":2018},{"name":"Gulf BP power station","mw":127,"lat":14.2533,"lon":100.6028,"fuel":"gas","tier":"100-500MW","year":2018},{"name":"Gulf NC power station","mw":127,"lat":14.0322,"lon":101.711,"fuel":"gas","tier":"100-500MW","year":2018},{"name":"Gulf CRN power station","mw":126,"lat":14.0977,"lon":100.5726,"fuel":"gas","tier":"100-500MW","year":2013},{"name":"Chaiyo power station","mw":123,"lat":14.6934,"lon":100.4584,"fuel":"gas","tier":"100-500MW","year":2016},{"name":"Klong Luang power station","mw":122,"lat":14.0222,"lon":100.6147,"fuel":"gas","tier":"100-500MW","year":2017},{"name":"Lat Krabang power station","mw":120,"lat":13.7598,"lon":100.7891,"fuel":"gas","tier":"100-500MW","year":2016},{"name":"Siam Pure Rice Combined Cycle power station","mw":120,"lat":14.8491,"lon":100.4448,"fuel":"gas","tier":"100-500MW","year":2016},{"name":"Thai Oil Company Sriracha Refinery power station","mw":118,"lat":13.1104,"lon":100.9049,"fuel":"gas","tier":"100-500MW","year":1997},{"name":"EGCO cogeneration (Rayong) power station","mw":117,"lat":12.7941,"lon":101.1993,"fuel":"gas","tier":"100-500MW","year":2003},{"name":"Gulf TLC power station","mw":114,"lat":14.5585,"lon":100.9646,"fuel":"gas","tier":"100-500MW","year":2013},{"name":"Koh Khanun power station","mw":114,"lat":13.6934,"lon":101.418,"fuel":"gas","tier":"100-500MW","year":2017},{"name":"Global Power Synergy Central Utility Plant 2","mw":113,"lat":12.7547,"lon":101.1637,"fuel":"gas","tier":"100-500MW","year":2008},{"name":"Nong Khae power station","mw":113,"lat":14.3789,"lon":100.8371,"fuel":"gas","tier":"100-500MW","year":2000},{"name":"Map Ta Phut BKK power station","mw":112,"lat":12.7063,"lon":101.1514,"fuel":"gas","tier":"100-500MW","year":1998},{"name":"Chachoengsao NNK cogeneration power station","mw":110,"lat":13.7361,"lon":101.0163,"fuel":"gas","tier":"100-500MW","year":2013},{"name":"Mitr Biopower Chaiyaphum power station","mw":103,"lat":16.4822,"lon":102.1201,"fuel":"biofuel","tier":"100-500MW","year":2004},{"name":"Nakornsawan solar farm","mw":101,"lat":15.3637,"lon":100.3118,"fuel":"solar","tier":"100-500MW","year":2013},{"name":"Phitsanulok solar farm","mw":101,"lat":17.0784,"lon":100.1173,"fuel":"solar","tier":"100-500MW","year":2015}]}