{"iso3":"THA","count":46,"byFuel":{"gas":33,"coal":5,"hydro":7,"wind":1},"byTier":{"2GW+":4,"1-2GW":9,"500MW-1GW":12,"100-500MW":21},"plants":[{"name":"Bang Pakong","mw":4384,"lat":13.501,"lon":101.0253,"fuel":"gas","tier":"2GW+","year":null},{"name":"Ratchaburi (RATCHGEN)","mw":3645,"lat":13.5979,"lon":99.8841,"fuel":"gas","tier":"2GW+","year":null},{"name":"Mae Mah","mw":2400,"lat":18.2963,"lon":99.7499,"fuel":"coal","tier":"2GW+","year":1995},{"name":"Wang Noi","mw":2027,"lat":14.2324,"lon":100.7805,"fuel":"gas","tier":"2GW+","year":null},{"name":"South Bangkok","mw":1691,"lat":13.617,"lon":100.559,"fuel":"gas","tier":"1-2GW","year":1971},{"name":"Nong Saeng","mw":1600,"lat":14.4417,"lon":100.7756,"fuel":"gas","tier":"1-2GW","year":2014},{"name":"Rojana Power Plant 1","mw":1600,"lat":14.3324,"lon":100.6382,"fuel":"gas","tier":"1-2GW","year":2015},{"name":"Chana","mw":1531,"lat":6.9553,"lon":100.7076,"fuel":"gas","tier":"1-2GW","year":null},{"name":"Kaeng Khoi 2","mw":1468,"lat":14.605,"lon":101.0259,"fuel":"gas","tier":"1-2GW","year":2008},{"name":"Ratchaburi Power (RPCL)","mw":1400,"lat":13.6068,"lon":99.8902,"fuel":"gas","tier":"1-2GW","year":2008},{"name":"BLCP Power","mw":1346,"lat":12.6448,"lon":101.1605,"fuel":"coal","tier":"1-2GW","year":2007},{"name":"Rayong","mw":1232,"lat":12.7623,"lon":101.1562,"fuel":"gas","tier":"1-2GW","year":1994},{"name":"Lam Ta Khong","mw":1000,"lat":14.8073,"lon":101.5453,"fuel":"hydro","tier":"1-2GW","year":2002},{"name":"Khanom","mw":748,"lat":9.2357,"lon":99.8593,"fuel":"gas","tier":"500MW-1GW","year":1996},{"name":"Bhumibol","mw":744,"lat":17.2426,"lon":98.9723,"fuel":"hydro","tier":"500MW-1GW","year":null},{"name":"Amata B Grimm","mw":733,"lat":13.4191,"lon":101.0272,"fuel":"gas","tier":"500MW-1GW","year":null},{"name":"Srinagarind","mw":720,"lat":14.407,"lon":99.1291,"fuel":"hydro","tier":"500MW-1GW","year":1980},{"name":"Glow IPP","mw":713,"lat":13.0536,"lon":101.0857,"fuel":"gas","tier":"500MW-1GW","year":2003},{"name":"Nam Phom","mw":710,"lat":16.682,"lon":102.7422,"fuel":"gas","tier":"500MW-1GW","year":null},{"name":"North Bangkok Power Station","mw":704,"lat":13.8129,"lon":100.5092,"fuel":"gas","tier":"500MW-1GW","year":2010},{"name":"Sriracha","mw":700,"lat":13.1128,"lon":100.9085,"fuel":"gas","tier":"500MW-1GW","year":null},{"name":"Tri Energy Power Plant","mw":700,"lat":13.536,"lon":99.743,"fuel":"gas","tier":"500MW-1GW","year":2000},{"name":"Gheco One power station","mw":660,"lat":12.6779,"lon":101.1356,"fuel":"coal","tier":"500MW-1GW","year":2012},{"name":"Glow Energy power complex","mw":526,"lat":12.6779,"lon":101.1356,"fuel":"coal","tier":"500MW-1GW","year":2001},{"name":"Sirikit","mw":500,"lat":17.7634,"lon":100.5636,"fuel":"hydro","tier":"500MW-1GW","year":1974},{"name":"Glow Energy Phase 5 Power Plant","mw":412,"lat":12.6779,"lon":101.1356,"fuel":"gas","tier":"100-500MW","year":2011},{"name":"Bang Bo","mw":350,"lat":13.492,"lon":100.8416,"fuel":"gas","tier":"100-500MW","year":2000},{"name":"Krabi","mw":340,"lat":7.9934,"lon":99.0482,"fuel":"gas","tier":"100-500MW","year":2004},{"name":"Tha Tum power station","mw":328,"lat":13.9325,"lon":101.5876,"fuel":"coal","tier":"100-500MW","year":1999},{"name":"Vajiralongkorn","mw":300,"lat":14.799,"lon":98.5966,"fuel":"hydro","tier":"100-500MW","year":1984},{"name":"GSPP 11","mw":272,"lat":13.0013,"lon":101.1361,"fuel":"gas","tier":"100-500MW","year":null},{"name":"Glow Energy Phase 2 Power Plant","mw":258,"lat":12.694,"lon":101.1452,"fuel":"gas","tier":"100-500MW","year":null},{"name":"Surat Thani","mw":244,"lat":9.0723,"lon":99.2418,"fuel":"gas","tier":"100-500MW","year":2001},{"name":"Rajjaprabha","mw":240,"lat":8.9723,"lon":98.807,"fuel":"hydro","tier":"100-500MW","year":1987},{"name":"B Grimm BIP","mw":230,"lat":13.9745,"lon":100.5649,"fuel":"gas","tier":"100-500MW","year":null},{"name":"CUP-1","mw":228,"lat":12.7014,"lon":101.1258,"fuel":"gas","tier":"100-500MW","year":null},{"name":"Huay Bong","mw":207,"lat":15.1771,"lon":101.4514,"fuel":"wind","tier":"100-500MW","year":null},{"name":"Laem Chabang","mw":159,"lat":13.0913,"lon":100.8943,"fuel":"gas","tier":"100-500MW","year":null},{"name":"Lan Krabue","mw":150,"lat":16.63,"lon":99.8533,"fuel":"gas","tier":"100-500MW","year":1982},{"name":"Pak Mun","mw":136,"lat":15.2819,"lon":105.4683,"fuel":"hydro","tier":"100-500MW","year":1993},{"name":"Bowin Clean Energy","mw":132,"lat":13.0505,"lon":101.0859,"fuel":"gas","tier":"100-500MW","year":null},{"name":"Nong Khae","mw":126,"lat":14.3406,"lon":100.8673,"fuel":"gas","tier":"100-500MW","year":2000},{"name":"Glow Demin","mw":124,"lat":12.6971,"lon":101.1191,"fuel":"gas","tier":"100-500MW","year":1998},{"name":"Saha Patana","mw":122,"lat":13.0988,"lon":100.9606,"fuel":"gas","tier":"100-500MW","year":1999},{"name":"CUP-2","mw":114,"lat":12.7547,"lon":101.1637,"fuel":"gas","tier":"100-500MW","year":null},{"name":"EGCO Cogen","mw":112,"lat":14.0977,"lon":100.5727,"fuel":"gas","tier":"100-500MW","year":2003}]}