{"iso3":"TUN","count":12,"byFuel":{"gas":12},"byTier":{"500MW-1GW":1,"100-500MW":11},"plants":[{"name":"Rades A1","mw":700,"lat":36.7967,"lon":10.283,"fuel":"gas","tier":"500MW-1GW","year":1985},{"name":"Bir Mcherga 1","mw":486,"lat":36.4634,"lon":10.0567,"fuel":"gas","tier":"100-500MW","year":1997},{"name":"IPP Rades 2","mw":470,"lat":36.799,"lon":10.2865,"fuel":"gas","tier":"100-500MW","year":2002},{"name":"Sousse C","mw":424,"lat":35.7855,"lon":10.6782,"fuel":"gas","tier":"100-500MW","year":2014},{"name":"Sousse D","mw":424,"lat":35.7855,"lon":10.6782,"fuel":"gas","tier":"100-500MW","year":2015},{"name":"Ghannouch","mw":415,"lat":33.9263,"lon":10.0932,"fuel":"gas","tier":"100-500MW","year":2011},{"name":"Thyna 1","mw":375,"lat":34.6868,"lon":10.6424,"fuel":"gas","tier":"100-500MW","year":2004},{"name":"Sousse B","mw":364,"lat":35.7848,"lon":10.6791,"fuel":"gas","tier":"100-500MW","year":1995},{"name":"Sousse A","mw":320,"lat":35.7848,"lon":10.6791,"fuel":"gas","tier":"100-500MW","year":1980},{"name":"Feriana 1","mw":236,"lat":34.9054,"lon":8.5408,"fuel":"gas","tier":"100-500MW","year":2005},{"name":"Bouchemma 1","mw":185,"lat":33.9181,"lon":10.0376,"fuel":"gas","tier":"100-500MW","year":1977},{"name":"Goulette","mw":123,"lat":36.8148,"lon":10.2897,"fuel":"gas","tier":"100-500MW","year":2005}]}