{"iso3":"URY","count":9,"source":{"label":"WRI Global Power Plant Database v1.3","url":"https://datasets.wri.org/dataset/globalpowerplantdatabase","year":2021},"byFuel":{"hydro":4,"oil":1,"gas":1,"biofuel":2,"wind":1},"byTier":{"500MW-1GW":1,"100-500MW":8},"plants":[{"name":"SALTO GRANDE","mw":945,"lat":-31.2749,"lon":-57.9382,"fuel":"hydro","tier":"500MW-1GW","year":null},{"name":"CONSTITUCIÓN","mw":333,"lat":-33.056,"lon":-57.4524,"fuel":"hydro","tier":"100-500MW","year":null},{"name":"PUNTA DEL TIGRE A","mw":300,"lat":-34.75,"lon":-56.5422,"fuel":"oil","tier":"100-500MW","year":null},{"name":"CTR","mw":212,"lat":-34.8265,"lon":-56.2366,"fuel":"gas","tier":"100-500MW","year":null},{"name":"MONTES DEL PLATA","mw":180,"lat":-34.2196,"lon":-58.0495,"fuel":"biofuel","tier":"100-500MW","year":null},{"name":"UPM","mw":161,"lat":-33.1148,"lon":-58.2567,"fuel":"biofuel","tier":"100-500MW","year":null},{"name":"DR. GABRIEL TERRA","mw":152,"lat":-32.8319,"lon":-56.4221,"fuel":"hydro","tier":"100-500MW","year":null},{"name":"PAMPA","mw":142,"lat":-32.2467,"lon":-56.215,"fuel":"wind","tier":"100-500MW","year":null},{"name":"RINCÓN DE BAYGORRIA","mw":108,"lat":-32.8736,"lon":-56.8061,"fuel":"hydro","tier":"100-500MW","year":null}]}