{"iso3":"ZMB","count":5,"byFuel":{"hydro":4,"coal":1},"byTier":{"500MW-1GW":2,"100-500MW":3},"plants":[{"name":"Kafue Gorge","mw":990,"lat":-15.8089,"lon":28.4199,"fuel":"hydro","tier":"500MW-1GW","year":1971},{"name":"Kariba","mw":930,"lat":-16.5222,"lon":28.7619,"fuel":"hydro","tier":"500MW-1GW","year":null},{"name":"Maamba plant","mw":300,"lat":-17.3529,"lon":27.1859,"fuel":"coal","tier":"100-500MW","year":2016},{"name":"Itezhi- Tezhi","mw":120,"lat":-15.7688,"lon":26.0203,"fuel":"hydro","tier":"100-500MW","year":1978},{"name":"Victoria Falls","mw":108,"lat":-17.9167,"lon":25.85,"fuel":"hydro","tier":"100-500MW","year":null}]}